公司統一編號,公司名稱,分公司統一編號,分公司名稱,分公司地址,分公司狀態,分公司核准設立日期,分公司最後核准變更日期,lat,lon
22555003,統一超商股份有限公司,18639,台北市第一一八六分公司,臺北市中正區汀州路三段180號,1,1140225,       ,25.0130196,121.5348497
22555003,統一超商股份有限公司,25358,台北市第一二四０分公司,臺北市大安區忠孝東路三段251巷2弄1號,1,1140106,       ,25.0421102,121.5415634
22555003,統一超商股份有限公司,49561,台北市第一二三九分公司,臺北市士林區美崙街114號,1,1131216,       ,25.0971213,121.5196829
22555003,統一超商股份有限公司,62493,台北市第一二三三分公司,臺北市中山區德惠街65、67、69、71號1樓,1,1131016,       ,25.0667322,121.5280879
22555003,統一超商股份有限公司,63916,台北市第一二三四分公司,臺北市內湖區東湖路114號,1,1131016,       ,25.0682114,121.6158387
22555003,統一超商股份有限公司,66456,台北市第一二三七分公司,臺北市松山區南京東路三段331號1樓,1,1131213,       ,25.0520702,121.547338
22555003,統一超商股份有限公司,66688,台北市第一二四七分公司,臺北市萬華區西園路一段80、82號1樓,1,1140318,       ,25.0392631,121.4997343
22555003,統一超商股份有限公司,71319,台北市第一一八五分公司,臺北市文山區和興路1、3、5號,1,1131219,       ,24.9853519,121.5488854
22555003,統一超商股份有限公司,108836,台北市第一二四一分公司,臺北市北投區公舘路230號,1,1140107,1140313,25.126236,121.507992
22555003,統一超商股份有限公司,121417,台北市第一一六六分公司,臺北市萬華區康定路154、156號1樓,1,1130827,       ,25.0396603,121.5017934
22555003,統一超商股份有限公司,135030,台北市第一一八三分公司,臺北市南港區園區街3號2樓之7,1,1130930,       ,25.0584861,121.6118825
22555003,統一超商股份有限公司,137353,台北市第一一八四分公司,臺北市文山區興隆路四段55號1樓,1,1131023,       ,24.9897132,121.5598745
22555003,統一超商股份有限公司,177740,台北市第一二四二分公司,臺北市松山區光復北路32號1樓,1,1140212,       ,25.0493273,121.5576315
22555003,統一超商股份有限公司,194213,台北市第一二三○分公司,臺北市萬華區興義街41、43號,1,1130828,       ,25.026524,121.4917546
22555003,統一超商股份有限公司,201299,台北市第一二三二分公司,臺北市中山區林森北路107巷83號1樓,1,1130913,       ,25.049815,121.5278708
22555003,統一超商股份有限公司,226263,台北市第一二三六分公司,臺北市萬華區大理街128之1、128之2號1樓,1,1131119,       ,25.0341071,121.4968645
22555003,統一超商股份有限公司,243565,台北市第一二三一分公司,臺北市松山區八德路三段74巷43號1樓,1,1130913,       ,25.0462579,121.5525599
22555003,統一超商股份有限公司,250018,台北市第一二三五分公司,臺北市松山區八德路四段147號,1,1131016,       ,25.0488088,121.5624313
22555003,統一超商股份有限公司,251332,台北市第一二三八分公司,臺北市中山區敬業一路56號1樓,1,1131213,       ,25.0816391,121.5528086
22555003,統一超商股份有限公司,1846195,台北市第一七０分公司,臺北市士林區文林路一六九號一樓,1,781127,       ,25.0950492,121.5246077
22555003,統一超商股份有限公司,16080140,台北巿第三四二分公司,臺北市松山區健康路224號１樓,1,860419,990901,25.0538091,121.5611158
22555003,統一超商股份有限公司,16082148,台北巿第二二四分公司,臺北市中山區民權東路3段71、73號1樓,1,860515,1000920,25.0624386,121.5408718
22555003,統一超商股份有限公司,16082175,台北巿第２３３分公司,臺北市南港區東新街80巷1號1樓、108巷2弄30號1樓,1,860515,1070906,25.0462292,121.587099
22555003,統一超商股份有限公司,16082787,台北巿第３４３分公司,臺北市中山區民生東路二段157號,1,860522,1070907,25.0581351,121.5358606
22555003,統一超商股份有限公司,16083723,台北巿第２３７分公司,臺北市信義區吳興街257、259號1樓,1,860604,1070905,25.0271406,121.5637318
22555003,統一超商股份有限公司,16083738,台北巿第２１３分公司,臺北市中山區伊通街30號1樓,1,860604,1080717,25.0508949,121.5346625
22555003,統一超商股份有限公司,16085004,台北巿第３４４分公司,臺北市士林區天玉里８鄰天母西路５巷６號１樓,3,860619,860619,25.1191069,121.5289639
22555003,統一超商股份有限公司,16085237,台北市第３３１分公司,臺北市中山區林森北路262號1樓,1,860619,1070911,25.0546383,121.5253239
22555003,統一超商股份有限公司,16085243,台北市第３４５分公司,臺北市中山區中山北路二段七十四號１樓,3,860619,890216,25.058131,121.5227773
22555003,統一超商股份有限公司,16085258,台北市第３４６分公司,臺北市萬華區環河南路二段200號1樓,1,860619,1070918,25.0341054,121.4930253
22555003,統一超商股份有限公司,16086926,台北巿第３４７分公司,臺北市中山區民權西路66號1樓,3,860710,1070904,25.0626266,121.5200165
22555003,統一超商股份有限公司,16086931,台北巿第３４８分公司,臺北市北投區立德路１２５號１樓,3,860710,881204,25.1283213,121.4719334
22555003,統一超商股份有限公司,16087241,台北巿第三四九分公司,臺北市士林區福順里重慶北路4段149、151號1樓,3,860715,990812,25.0832262,121.5118302
22555003,統一超商股份有限公司,16088760,台北巿第３５０分公司,臺北市大安區和平東路二段118巷33號1樓,1,860805,1121128,25.0235068,121.5429334
22555003,統一超商股份有限公司,16089199,台北巿第３５１分公司,臺北市北投區明德路99號1樓,1,860811,1070905,25.1094982,121.5194143
22555003,統一超商股份有限公司,16089732,台北巿第３５２分公司,臺北市中山區復興北路164號1樓,1,860820,1070905,25.053458,121.5437888
22555003,統一超商股份有限公司,16090267,台北巿第３５３分公司,臺北市松山區南京東路三段３４２號１樓,3,860825,930206,25.051552,121.5479418
22555003,統一超商股份有限公司,16092336,台北巿第３５４分公司,臺北市文山區景中街45號1樓,1,860912,1121128,24.9927781,121.5440468
22555003,統一超商股份有限公司,16094361,台北巿第３５５分公司,臺北市中山區長安東路二段１７６號１樓,3,861003,870113,25.0481601,121.5406131
22555003,統一超商股份有限公司,16097796,台北巿第３５６分公司,臺北市士林區士東路48號1樓,3,861110,1070906,25.1118827,121.527792
22555003,統一超商股份有限公司,16097965,台北巿第３５７分公司,臺北市松山區八德路四段６５８號１樓,3,861111,881110,25.0498614,121.5756705
22555003,統一超商股份有限公司,16097971,台北巿第３５８分公司,臺北市大安區大安路二段102號1樓,1,861111,1070905,25.0308364,121.5458506
22555003,統一超商股份有限公司,16097986,台北巿第３５９分公司,臺北市士林區德行東路262號1樓,1,861111,990820,25.1097242,121.5346867
22555003,統一超商股份有限公司,16098520,台北巿第３６０分公司,臺北市大安區東豐街9號1樓,1,861118,1070906,25.0361488,121.5442501
22555003,統一超商股份有限公司,16432911,台北巿第３６１分公司,臺北市大安區建國南路一段274號1樓,1,861215,1070905,25.0363427,121.5372892
22555003,統一超商股份有限公司,16432927,台北巿第三六二分公司,臺北市中正區永昌里21鄰中華路2段405、407號1樓,1,861215,1000530,25.0260137,121.5082565
22555003,統一超商股份有限公司,16433025,台北巿第３６３分公司,臺北市大安區仁愛路四段２６６巷十五弄十八號１樓,3,861217,921031,25.0370893,121.5528804
22555003,統一超商股份有限公司,16435558,台北巿第３６４分公司,臺北市中山區長春路67號1樓,1,870112,1070906,25.055056,121.5265507
22555003,統一超商股份有限公司,16436352,台北巿第３６５分公司,臺北市信義區大仁里8鄰林口街48號,1,870122,1070906,25.038253,121.5794416
22555003,統一超商股份有限公司,16436509,台北巿第３６６分公司,臺北市北投區振興街31號1樓,3,870202,1070905,25.1179588,121.5223906
22555003,統一超商股份有限公司,16436711,台北巿第３６７分公司,臺北市北投區公館路31號1樓,1,870202,1070906,25.1330734,121.503131
22555003,統一超商股份有限公司,16436727,台北巿第３６８分公司,臺北市士林區士東路２００巷二十一號１樓,3,870202,870202,25.1126872,121.5335541
22555003,統一超商股份有限公司,16438437,台北巿第３６９分公司,臺北市信義區新仁里24鄰東興路57號1樓,1,870220,1070905,25.0473815,121.5664871
22555003,統一超商股份有限公司,16440068,台北巿第３７０分公司,臺北市大興街四十八號,3,870312,870312,25.1305789,121.5007407
22555003,統一超商股份有限公司,16442559,台北巿第３７１分公司,臺北市南港區興華路117、119、121、123、125號1樓,1,870403,1000823,25.0568862,121.6057091
22555003,統一超商股份有限公司,16443157,台北巿第３７２分公司,臺北市南港區忠孝東路六段276號,1,870410,1070906,25.0490324,121.5890723
22555003,統一超商股份有限公司,16443163,台北巿第３７３分公司,臺北市信義區六藝里二十四鄰永吉路１８０巷六十七弄５號１樓,3,870410,870410,25.0454103,121.5716421
22555003,統一超商股份有限公司,16446540,台北巿第３７４分公司,臺北市北投區知行路２０８–２號１樓,3,870512,911107,25.1193997,121.4669493
22555003,統一超商股份有限公司,16446555,台北巿第三七五分公司,臺北市北投區石牌路2段335號1樓,3,870512,1000512,25.12282,121.5244173
22555003,統一超商股份有限公司,16447864,台北巿第３７６分公司,臺北市文山區景行里景文街96、98號1樓,1,870526,1121128,24.990277,121.540934
22555003,統一超商股份有限公司,16448364,台北巿第３７７分公司,臺北市玉成街１５４號１樓,3,870529,870529,25.0450296,121.5838133
22555003,統一超商股份有限公司,16448673,台北巿第３７９分公司,臺北市中山區合江街117號1樓,1,870602,1070906,25.0603761,121.5393921
22555003,統一超商股份有限公司,16450136,台北市第三八０分公司,臺北市中正區襄陽路７號１樓,3,870612,910705,25.0436426,121.5158335
22555003,統一超商股份有限公司,16450620,台北市第三八三分公司,臺北市北投區光明路122號1樓,1,870618,1121128,25.133288,121.501821
22555003,統一超商股份有限公司,16450874,台北市第３８１分公司,臺北市信義區吳興街４８７號１樓,3,870623,       ,25.0234945,121.5697261
22555003,統一超商股份有限公司,16450889,台北市第３８２分公司,臺北市中正區忠孝西路一段四十九號Ｕ１區Ａ室,3,870623,870924,25.0468901,121.5150428
22555003,統一超商股份有限公司,16632262,台北市第３８４分公司,臺北市松山區南京東路五段139之4、139之8號1樓,1,870702,1080717,25.0517006,121.5616449
22555003,統一超商股份有限公司,16633641,台北市第３８５分公司,臺北市中山區北安路六四九號一樓,1,870714,1121128,25.0796593,121.5428669
22555003,統一超商股份有限公司,16633656,台北市第３８６分公司,臺北市大同區民生西路95、97號1樓,1,870714,1121127,25.0575962,121.5192909
22555003,統一超商股份有限公司,16637273,台北市第３８７分公司,臺北市松山區上壽里二十一鄰撫遠街十七-一號一樓,3,870817,900131,25.0644631,121.5658051
22555003,統一超商股份有限公司,16740240,台北市第３８９分公司,臺北市大同區延平北路二段159、161號1樓,1,870831,1121127,25.058332,121.5115766
22555003,統一超商股份有限公司,16740277,台北市第３８８分公司,臺北市士林區光華路26巷7-1、7-2、7-3號1樓,1,870831,1121127,25.1369947,121.541497
22555003,統一超商股份有限公司,16740678,台北市第３９０分公司,臺北市信義區基隆路一段一四五號一樓,3,870907,881220,25.0332738,121.5731167
22555003,統一超商股份有限公司,16743437,台北市第３９１分公司,臺北市大安區師大路五十九巷十三號一樓,1,870928,1121128,25.0236248,121.5284767
22555003,統一超商股份有限公司,16746574,台北市第１６分公司,臺北市萬華區峨眉街八十四號一樓,3,871030,901212,25.0440139,121.5048862
22555003,統一超商股份有限公司,16749571,台北市第２２１分公司,臺北市信義區松德路一二九．一三一號一樓,3,871202,       ,25.0345658,121.5746318
22555003,統一超商股份有限公司,16749586,台北市第３６分公司,臺北市中正區杭州南路一段83號1樓,1,871202,1121127,25.0390643,121.5255747
22555003,統一超商股份有限公司,16749592,台北市第４５分公司,臺北市大同區酒泉街58、60號1樓,1,871202,1121127,25.0718511,121.515641
22555003,統一超商股份有限公司,16749848,台北市第２９６分公司,臺北市士林區克強路八號一樓,3,871203,920702,25.1089066,121.5238334
22555003,統一超商股份有限公司,16832206,台北市第３３９分公司,臺北市松山區新東街十五巷一號一樓,1,871221,1121128,25.0598516,121.5658539
22555003,統一超商股份有限公司,16832212,台北市第３１１分公司,臺北市松山區三民路十號一樓,1,871221,1121128,25.0571574,121.5635089
22555003,統一超商股份有限公司,16832228,台北市第２９９分公司,臺北市中山區松江路三０五號一樓,3,871221,       ,25.0583949,121.5332105
22555003,統一超商股份有限公司,16832655,台北市第３９２分公司,臺北市中山區長安東路二段一０一號一樓,1,871223,1121128,25.0452468,121.5342207
22555003,統一超商股份有限公司,16833140,台北市第３９３分公司,臺北市士林區陽明里十六鄰格玫路二０四號一樓,3,871231,901213,25.1398352,121.5498451
22555003,統一超商股份有限公司,16833444,台北市第３９４分公司,臺北市士林區中山北路七段14巷19號Ｂ1樓,1,880107,1121127,25.1188685,121.53229
22555003,統一超商股份有限公司,16833459,台北市第３９５分公司,臺北市羅斯福路六段二十九、三十一號一樓,3,880107,       ,24.9942003,121.5410774
22555003,統一超商股份有限公司,16833900,台北市第３９６分公司,臺北市信義區信義路六段十一號一樓,3,880112,       ,25.0332738,121.5731167
22555003,統一超商股份有限公司,16834936,台北市第三九七分公司,臺北市中正區忠孝西路一段四十九號地下一樓Ｅ室,3,880126,880809,25.0468901,121.5150428
22555003,統一超商股份有限公司,16834979,台北市第３９９分公司,臺北市中山區松江路二六八號一樓,3,880126,911008,25.0583949,121.5332105
22555003,統一超商股份有限公司,16834984,台北市第３９８分公司,臺北市中正區忠孝西路一段四十九號Ｂ一樓,3,880126,900322,25.0468901,121.5150428
22555003,統一超商股份有限公司,16835793,台北市第４００分公司,臺北市中山區民權東路三段二十二號一樓,3,880204,900731,25.0614801,121.5351375
22555003,統一超商股份有限公司,16836012,台北市第４０１分公司,臺北市大安區大安路一段218號1樓,1,880208,1121127,25.0343985,121.5458666
22555003,統一超商股份有限公司,16836358,台北市第４０２分公司,臺北市內湖區大湖山莊街219巷6、8號1樓,1,880212,990820,25.0884695,121.5994274
22555003,統一超商股份有限公司,16836717,台北市第４０３分公司,臺北市中正區羅斯福路三段二四四巷二-一號一樓,3,880223,900129,25.0203177,121.5285068
22555003,統一超商股份有限公司,16836998,台北市第４０４分公司,臺北市內湖區金龍里金龍路五號一樓,1,880301,1121128,25.0851363,121.5921285
22555003,統一超商股份有限公司,16837201,台北市第四０五分公司,臺北市士林區美崙街一一八號一樓,3,880303,890110,25.0971278,121.5220885
22555003,統一超商股份有限公司,16837960,台北市第４０６分公司,臺北市信義區永春里二十一鄰松山路二二五巷二號一樓、二二七號一,3,880311,930604,25.0432663,121.5778708
22555003,統一超商股份有限公司,16838807,台北市第４０７分公司,臺北市中正區汀州路一段三八六、三八八號一樓,3,880319,       ,25.0293462,121.5082247
22555003,統一超商股份有限公司,16839117,台北市第４０８分公司,臺北市南京西路十六號Ｂ一樓,3,880322,910305,25.0537964,121.5152159
22555003,統一超商股份有限公司,16839123,台北市第４０９分公司,臺北市北投區中央北路三段二號一樓,3,880322,       ,25.1371417,121.4828384
22555003,統一超商股份有限公司,16839159,台北市第４１０分公司,臺北市捷運淡水線地下街鄭州路至南京西路段Ｍ一　三段Ａ二,3,880322,910305,25.0495017,121.5136386
22555003,統一超商股份有限公司,16839974,台北市第四一一分公司,臺北市中正區信陽街十一-二號一樓,3,880406,       ,25.0446511,121.5161031
22555003,統一超商股份有限公司,16841079,台北市第４１２分公司,臺北市大安區仁愛路四段二十七巷一號一樓,1,880415,1121128,25.0378148,121.5536584
22555003,統一超商股份有限公司,16841084,台北市第４１３分公司,臺北市信義區惠安里吳興街五二０號一樓,1,880415,1121128,25.0242334,121.5681073
22555003,統一超商股份有限公司,16841654,台北市第四一四分公司,臺北市大安區忠孝東路四段二一六巷六十八號一樓,1,880421,1121128,25.0413474,121.5540705
22555003,統一超商股份有限公司,16841970,台北市第四一五分公司,臺北市中正區中華路一段五十九-十八、五十九-十九、五十九-二十,3,880426,920623,25.0421407,121.5198716
22555003,統一超商股份有限公司,16843999,台北市第四一六分公司,臺北市南港區南港路三段四十九-一號一樓,3,880515,940223,25.0530573,121.5868415
22555003,統一超商股份有限公司,16844456,台北市第四一七分公司,臺北市士林區中山北路五七０號一樓,3,880524,890508,25.1157674,121.528323
22555003,統一超商股份有限公司,16845053,台北市第四一八分公司,臺北市大安區建國南路一段28、30號1樓,1,880531,1121127,25.0442797,121.5362299
22555003,統一超商股份有限公司,16845069,台北市第四一九分公司,臺北市萬華區武昌街二段一一四號一樓,3,880531,       ,25.0449919,121.5057664
22555003,統一超商股份有限公司,16845075,台北市第四二０分公司,臺北市南港區研究院路一段九十九號一樓之十四,1,880531,1121128,25.0312347,121.6111949
22555003,統一超商股份有限公司,16846139,台北市第四二一分公司,臺北市中正區懷寧街十七號一樓,3,880615,930728,25.0427514,121.5140338
22555003,統一超商股份有限公司,16846145,台北市第四二二分公司,臺北市內湖區成功路三段二０一號一樓,3,880615,1121128,25.0782937,121.5897651
22555003,統一超商股份有限公司,16846594,台北市第四二三分公司,臺北市信義區松山路608、610號1樓,1,880621,1080717,25.0358094,121.5785008
22555003,統一超商股份有限公司,16846601,台北市第四二四分公司,臺北市內湖區康寧路3段99巷14號1樓、康寧路3段99巷12弄2號1樓,1,880621,1000920,25.0726161,121.6108369
22555003,統一超商股份有限公司,16847587,台北市第四二五分公司,臺北市士林區至善路二段三十四號一樓,3,880629,880713,25.1028387,121.5532316
22555003,統一超商股份有限公司,16847593,台北市第四二六分公司,臺北市士林區福國路94號1樓,1,880629,1121127,25.1021298,121.5223474
22555003,統一超商股份有限公司,16848002,台北市第四二七分公司,臺北市南港區八德路四段778、780號1樓,1,880701,1000822,25.0504539,121.5803165
22555003,統一超商股份有限公司,22555284,臺北市第１分公司,臺北市中山北路六段１５０號１樓,1,760618,       ,25.1064545,121.5250859
22555003,統一超商股份有限公司,22555290,台北市第２分公司,臺北市福港街２５８號１樓,3,760618,901002,25.0838096,121.517539
22555003,統一超商股份有限公司,22555307,臺北市第３分公司,臺北市石牌路二段７６號１樓,1,760618,       ,25.1166236,121.5162778
22555003,統一超商股份有限公司,22555313,臺北市第４分公司,臺北市中山北路七段１７４號１樓,1,760618,       ,25.124378,121.5327821
22555003,統一超商股份有限公司,22555329,台北市第５分公司,臺北市北投區榮華三路３–１號１樓,1,760618,811020,25.1136705,121.5240472
22555003,統一超商股份有限公司,22555334,台北市第６分公司,臺北市北投區石牌路一段126號1樓,1,760618,1051230,25.1140334,121.5124917
22555003,統一超商股份有限公司,22555340,台北市第７分公司,臺北市北投區中和街222號1樓,1,760618,1051230,25.1391154,121.5018704
22555003,統一超商股份有限公司,22555355,台北市第８分公司,臺北市士林區忠誠路二段7號1樓,1,760618,1000401,25.1089834,121.5306566
22555003,統一超商股份有限公司,22555361,台北市第九分公司,臺北市松山區八德路三段200、202號1樓,1,760618,1080717,25.0479087,121.5564316
22555003,統一超商股份有限公司,22555377,台北市第十分公司,臺北市仁愛路四段４２０號１樓,3,760618,900607,25.037372,121.5577697
22555003,統一超商股份有限公司,22555382,台北市第１１分公司,臺北市孝東路四段３０８號１樓,3,760618,860623,25.0410422,121.5571143
22555003,統一超商股份有限公司,22555398,台北市第十二分公司,臺北市松山區南京東路四段131號1樓,3,760618,1051230,25.0518874,121.5550072
22555003,統一超商股份有限公司,22555405,台北市第十三分公司,臺北市松山區八德路三段27號1樓,1,760618,1051230,25.0482967,121.5527068
22555003,統一超商股份有限公司,22555411,台北市第十四分公司,臺北市光復南路４７１號１樓,1,760618,1011016,25.0337373,121.5577492
22555003,統一超商股份有限公司,22555427,臺北市第十五分公司,臺北市南京東路五段十七號１樓,3,760618,811020,25.0513368,121.5639812
22555003,統一超商股份有限公司,22555432,台北市第１６分公司,臺北市松信路１４５號１樓,1,760618,861205,25.0361921,121.5358668
22555003,統一超商股份有限公司,22555448,臺北市第十七分公司,臺北市信義區忠孝東路五段386號1樓,1,760618,1051230,25.0407491,121.5741896
22555003,統一超商股份有限公司,22555453,臺北市第十八分公司,臺北市信義區基隆路二段22號1樓,1,760618,1051230,25.0319867,121.5587018
22555003,統一超商股份有限公司,22555469,台北市第十九分公司,臺北市信義區臺北市永吉路32、34號1樓,1,760618,1000530,25.0455652,121.5689489
22555003,統一超商股份有限公司,22555475,台北市第二十分公司,臺北市中坡南路三十八號１樓,1,760618,811020,25.0422056,121.5843871
22555003,統一超商股份有限公司,22555480,台北市第二十一分公司,臺北市松山路４６３號１樓,3,760618,811020,25.039675,121.5780539
22555003,統一超商股份有限公司,22555496,台北市第二十二分公司,臺北市長安西路１４７、１４９號１樓,3,760618,930804,25.0329694,121.5654177
22555003,統一超商股份有限公司,22555502,台北市第二十三分公司,臺北市松山區民生東路五段65號1樓,3,760618,1051230,25.0586353,121.5581003
22555003,統一超商股份有限公司,22555518,台北市第二十四分公司,臺北市松山區延壽街422號1樓,1,760618,1051230,25.0562019,121.5564649
22555003,統一超商股份有限公司,22555524,台北市第二十五分公司,臺北市敦化北路149號1樓,1,760618,1001214,25.0540532,121.5493628
22555003,統一超商股份有限公司,22555539,台北市第二十六分公司,臺北市松山區八德路二段439號1樓,1,760618,1051230,25.048365,121.5469812
22555003,統一超商股份有限公司,22555545,台北市第二十七分公司,臺北市松山區民權東路3段108號1樓,1,760618,1060329,25.0624386,121.5408718
22555003,統一超商股份有限公司,22555550,台北市第二十八分公司,臺北市敦化北路２２２巷五十–五十二號１樓,3,760618,811013,25.0594312,121.5479162
22555003,統一超商股份有限公司,22555566,台北市第２９分公司,臺北市大安區永康街43號1樓,1,760618,1051230,25.0304207,121.5295936
22555003,統一超商股份有限公司,22555572,台北市第３０分公司,臺北市忠孝東路四段２２３巷二十弄３號１樓,3,760618,870922,25.0417641,121.5527536
22555003,統一超商股份有限公司,22555587,臺北市第３１分公司,臺北市忠孝東路三段２１７巷１弄２號１樓,1,760618,       ,25.0424791,121.5396098
22555003,統一超商股份有限公司,22555593,台北市第３２分公司,臺北市濟南路三段７號１樓,3,760618,860623,25.0403003,121.533609
22555003,統一超商股份有限公司,22555600,台北市第３３分公司,臺北市忠孝東路三段２５１巷３弄２號１樓,3,760618,900829,25.0422326,121.5417471
22555003,統一超商股份有限公司,22555616,台北市第三十四分公司,臺北市中正區新生南路一段126-7號1樓,1,760618,991222,25.037118,121.5324854
22555003,統一超商股份有限公司,22555622,台北市第３５分公司,臺北市金華街１４０–１號１樓,3,760618,860623,25.0298076,121.5284274
22555003,統一超商股份有限公司,22555637,台北市第三十六分公司,臺北市連雲街７２–１、２、３號１樓,1,760618,811020,25.0357888,121.5314589
22555003,統一超商股份有限公司,22555643,台北市第三十七分公司,臺北市羅斯福路三段２３８號１樓,3,760618,811020,25.018258,121.530409
22555003,統一超商股份有限公司,22555658,台北市第三十八分公司,臺北市中正區南昌路一段72號1樓,3,760618,1051230,25.0310952,121.5171723
22555003,統一超商股份有限公司,22555664,台北市第３９分公司,臺北市大安區師大路87號1樓,1,760618,1051230,25.0232036,121.5285424
22555003,統一超商股份有限公司,22555670,台北市第四十分公司,臺北市延平南路１７３號１樓,3,760618,811020,25.0347232,121.5076537
22555003,統一超商股份有限公司,22555685,台北市第４１分公司,臺北市和平東路一段２１２號１樓,3,760618,910321,25.0260976,121.5317596
22555003,統一超商股份有限公司,22555691,台北市第四十二分公司,臺北市和平西路一段１００號１樓,3,760618,920307,25.0264922,121.5177996
22555003,統一超商股份有限公司,22555708,台北市第四十三分公司,臺北市環河南路二段２４２、２４２–１號１樓,3,760618,871113,25.03338,121.492187
22555003,統一超商股份有限公司,22555714,臺北市第４４分公司,臺北市和平東路三段３０８巷３０號１樓,1,760618,       ,25.0198297,121.5556129
22555003,統一超商股份有限公司,22555720,台北市第４５分公司,臺北市復興南路二段３０８巷５號１樓,3,760618,860623,25.0236584,121.5431002
22555003,統一超商股份有限公司,22555735,台北市第四十六分公司,臺北市大安區敦化南路1段236巷13號1樓,3,760618,1051230,25.0404448,121.5485486
22555003,統一超商股份有限公司,22555741,台北市第４７分公司,臺北市大安區信義路四段265巷12弄1號1樓,1,760618,1051230,25.0343743,121.5543717
22555003,統一超商股份有限公司,22555756,台北市第四十八分公司,臺北市仁愛路四段１４１號１樓,3,760618,850318,25.0381043,121.5509811
22555003,統一超商股份有限公司,22555762,台北市第４９分公司,臺北市大安路一段２０５號１樓,3,760618,920319,25.0353685,121.5461024
22555003,統一超商股份有限公司,22555778,台北市第５０分公司,臺北市大安區安和路1段86號1樓,1,760618,1051230,25.0385717,121.5485595
22555003,統一超商股份有限公司,22555783,台北市第５１分公司,臺北市文山區忠順街一段26巷15號1樓,3,760618,1000830,24.9824849,121.5597293
22555003,統一超商股份有限公司,22555799,台北市第五十二分公司,臺北市羅斯福路五段１９０–３號１樓,3,760622,811020,25.0037503,121.5384322
22555003,統一超商股份有限公司,22555806,台北市第五十三分公司,臺北市木柵區新光路一段１４１號１樓,3,760622,930325,24.9917052,121.5736508
22555003,統一超商股份有限公司,22555812,臺北市第五十四分公司,臺北市松山區南京東路三段303巷5號1樓、3弄2號1樓,3,760622,1001025,25.0525545,121.5465895
22555003,統一超商股份有限公司,22555828,台北市第五十五分公司,臺北市雙城街十六–１號１樓,1,760622,811020,25.0658309,121.5243036
22555003,統一超商股份有限公司,22555833,台北市第五十六分公司,臺北市南京西路３１６號１樓,3,760622,811020,25.0538823,121.5130274
22555003,統一超商股份有限公司,22555849,台北市第五十七分公司,臺北市中山區農安街28-1號、28-2號1樓,1,760622,1100324,25.0648078,121.5264024
22555003,統一超商股份有限公司,22555854,台北市第五十八分公司,臺北市中山區林森北路617號1樓,3,760622,970325,25.066767,121.525882
22555003,統一超商股份有限公司,22555860,台北市第五十九分公司,臺北市大同區重慶北路3段258、260、262號1樓,1,760622,1071123,25.0714501,121.5135852
22555003,統一超商股份有限公司,22555876,台北市第６０分公司,臺北市士林區格致路四十五、四十七號１樓,3,760622,921110,25.1405024,121.5482697
22555003,統一超商股份有限公司,22555881,臺北市第６１分公司,臺北市民權西路３８號１樓,1,760622,       ,25.06263,121.5212231
22555003,統一超商股份有限公司,22555897,台北市第六十二分公司,臺北市農安街２２７之１號１樓,3,760622,880826,25.0648387,121.5298306
22555003,統一超商股份有限公司,22555904,台北市第六十三分公司,臺北市中正區青島東路4號1樓,1,760622,1051230,25.043756,121.521664
22555003,統一超商股份有限公司,22555910,台北市第六十四分公司,臺北市中正區武昌街一段1-2號1樓,1,760622,1000809,25.0441669,121.513528
22555003,統一超商股份有限公司,22555926,台北市第六十五分公司,臺北市士林區中正路220、222號1樓,1,760622,1051230,25.0955291,121.5260817
22555003,統一超商股份有限公司,22555931,台北市第六十六分公司,臺北市中華商場義棟六十七號１樓,1,760622,811020,25.0464339,121.5071232
22555003,統一超商股份有限公司,22555947,台北市第六十七分公司,臺北市萬華區康定路九十九號１樓,3,760622,811020,25.0262857,121.4970294
22555003,統一超商股份有限公司,22555952,台北市第六十八分公司,臺北市中正區金山南路一段108號1樓,1,760622,1051230,25.0354643,121.5273215
22555003,統一超商股份有限公司,22555968,台北市第六十九分公司,臺北市萬華區康定街203、205號1樓,1,760622,1000530,25.0359856,121.5014931
22555003,統一超商股份有限公司,22555974,台北市第七十分公司,臺北市長安東路一段五十三巷１–６號１樓,3,760622,811020,25.0489386,121.5255248
22555003,統一超商股份有限公司,22555989,台北市第七十一分公司,臺北市中山北路一段１０５巷８號１樓,1,760622,811020,25.0507613,121.5227396
22555003,統一超商股份有限公司,22555995,臺北市第七十二分公司,臺北市南京東路一段１３２巷８號１樓,3,760622,900416,25.0513101,121.527074
22555003,統一超商股份有限公司,22656001,臺北市第７３分公司,臺北市南京東路一段１３２巷２１–１號１樓,1,760622,       ,25.051054,121.5271201
22555003,統一超商股份有限公司,22656017,台北市第七十四分公司,臺北市一江街四十三號１樓,3,760622,900813,25.0525985,121.5315216
22555003,統一超商股份有限公司,22656023,臺北市第７５分公司,臺北市長安東路二段８１號１樓,3,760622,       ,25.0483297,121.5345284
22555003,統一超商股份有限公司,22656038,台北市第七十六分公司,臺北市長安東路一段七十三號１樓,3,760622,811020,25.0329636,121.5654268
22555003,統一超商股份有限公司,22656044,台北市第七十七分公司,臺北市中山區天津街65號1樓,1,760622,1051230,25.0517568,121.5235964
22555003,統一超商股份有限公司,22656059,台北市第七十八分公司,臺北市長安東路一段８之３號１樓,6,760622,811020,25.0489386,121.5255248
22555003,統一超商股份有限公司,22656065,台北市第七十九分公司,臺北市吉林路２１１號１樓,3,760622,811020,25.0603083,121.5303732
22555003,統一超商股份有限公司,22656071,台北市第八十分公司,臺北市民權東路二段１５２巷８號１樓,3,760622,890503,25.061331,121.5347989
22555003,統一超商股份有限公司,22656086,台北市第八十一分公司,臺北市中山區民生東路2段111、113號1樓,1,760622,1070903,25.0576301,121.537442
22555003,統一超商股份有限公司,22656092,台北市第八十二分公司,臺北市林森北路３６２號１樓,3,760622,811020,25.0573535,121.5253883
22555003,統一超商股份有限公司,22656109,臺北市第８３分公司,臺北市松江路３１２號１樓,3,760622,890104,25.060453,121.532839
22555003,統一超商股份有限公司,22656115,台北市第八十四分公司,臺北市龍江路２４４號１樓,1,760622,811020,25.0591671,121.5406571
22555003,統一超商股份有限公司,22656121,台北市第八十五分公司,臺北市興安街１２８號１樓,3,760622,811020,25.0558738,121.5436777
22555003,統一超商股份有限公司,22656136,台北市第八十六分公司,臺北市中山區林森北路500號1樓,1,760622,1051215,25.061878,121.5254984
22555003,統一超商股份有限公司,22656142,台北市第八七分公司,臺北市忠孝東路四段五六０號一一樓,1,760629,       ,25.0413474,121.5540705
22555003,統一超商股份有限公司,22656157,臺北市第八十八分公司,臺北市士林區大東路八十三、八十五號１樓,3,760622,931209,25.0900093,121.5255087
22555003,統一超商股份有限公司,22656163,台北市第八十九分公司,臺北市中山區合江街58巷1號1樓：60、60-1號1樓,1,760622,1000328,25.0558319,121.538936
22555003,統一超商股份有限公司,22656179,臺北市第９０分公司,臺北市敦化南路５號１樓,3,760622,800418,25.0329636,121.5654268
22555003,統一超商股份有限公司,22659627,臺北巿第九三分公司,臺北市內湖路１段７３３號１樓,1,760828,       ,25.0823089,121.5683655
22555003,統一超商股份有限公司,22659632,台北巿第九十四分公司,臺北市永吉路３２５號１樓,1,760828,811020,25.0456829,121.5757534
22555003,統一超商股份有限公司,22660912,台北巿第九十五分公司,臺北市萬大路245、247號1樓,1,761012,1000816,25.0261255,121.5006653
22555003,統一超商股份有限公司,22660928,台北巿第九十六分公司,臺北市北投區明德路114、116號1樓,1,761012,1051215,25.1098437,121.520212
22555003,統一超商股份有限公司,22661243,台北巿第九十八分公司,臺北市東園街六九、七一、七一–１號１樓七三巷１號１樓,1,761020,811020,25.0329636,121.5654268
22555003,統一超商股份有限公司,22764727,台北市第９９分公司,臺北市羅斯福路三段２６７號１樓,3,761124,860623,25.0187558,121.530524
22555003,統一超商股份有限公司,22765423,台北巿第１００分公司,臺北市福德街１８９號１樓,3,761210,811020,25.0382309,121.5842154
22555003,統一超商股份有限公司,22766149,台北市第１０２分公司,臺北市忠誠路二段四十六–１號１樓,3,761228,920702,25.1135714,121.5319734
22555003,統一超商股份有限公司,22766154,台北市第１０３分公司,臺北市信義路３段１０９號１樓,3,761228,811020,25.0336866,121.5390965
22555003,統一超商股份有限公司,22766160,台北市第１０４分公司,臺北市文山區木新路二段255號1樓,1,761228,1051215,24.983049,121.5666245
22555003,統一超商股份有限公司,22818168,台北市第１０５分公司,臺北市信義路二段二十八號１樓,3,770224,881004,25.0340039,121.5285046
22555003,統一超商股份有限公司,22819069,台北巿第１０６分公司,臺北市士林區天母西路39之1號1樓,1,770311,1080717,25.1186273,121.5273994
22555003,統一超商股份有限公司,22819526,台北巿第１０７分公司,臺北市木柵路１段１６８、１７０號１樓,3,770318,1051215,24.99168,121.5711331
22555003,統一超商股份有限公司,22819841,台北巿第１０８分公司,臺北市文山區木柵路2段157、159號1樓,1,770331,1051215,24.982055,121.5618619
22555003,統一超商股份有限公司,22820208,台北巿第１０９分公司,臺北市中山區龍江路281-1號1樓,1,770406,1051215,25.0601059,121.5409117
22555003,統一超商股份有限公司,22820679,台北巿第１１０分公司,臺北市大安區瑞安街182號1樓,1,770420,1051215,25.0285858,121.5409663
22555003,統一超商股份有限公司,22822058,台北巿第１１３分公司,臺北市中正區寧波西街3號1樓,1,770507,1051215,25.0315219,121.5187578
22555003,統一超商股份有限公司,22822064,臺北巿第１１２分公司,臺北市忠孝東路４段５００號１樓,1,770507,811020,25.0420032,121.5334554
22555003,統一超商股份有限公司,22955850,台北巿第１１８分公司,臺北市金龍路六十四、六十六號１樓,3,770624,811020,25.0329694,121.5654177
22555003,統一超商股份有限公司,22955866,台北巿第１１７分公司,臺北市士林區仰德大道三段68、70號1樓,1,770624,1080717,25.1188242,121.5528559
22555003,統一超商股份有限公司,22958224,臺北巿第一一九分公司,臺北市大同區承德路三段60、60-1號1樓,1,770811,991217,25.0653101,121.5180203
22555003,統一超商股份有限公司,22958239,台北巿第１２０分公司,臺北市中山區復興北路３５２號１樓,3,770811,1051215,25.060028,121.543802
22555003,統一超商股份有限公司,22958245,台北巿第一二一分公司,臺北市大安區大安路一段五十二巷二十一號一樓,3,770811,900629,25.0393976,121.5460635
22555003,統一超商股份有限公司,22958553,台北巿第１２２分公司,臺北市和平東路二段十八號１樓,3,770812,860623,25.0253227,121.5407581
22555003,統一超商股份有限公司,22959743,台北巿第１２５分公司,臺北市文山區羅斯福路6段20、22號1樓,1,770829,1121128,25.0000402,121.5394249
22555003,統一超商股份有限公司,23111345,台北市第１２６分公司,臺北市東湖路九十號１樓,1,770909,811020,25.0329694,121.5654177
22555003,統一超商股份有限公司,23111372,台北市第１２７分公司,臺北市長春路１０８號１樓,3,770909,900306,25.0547888,121.5282976
22555003,統一超商股份有限公司,23111605,台北巿第１２８分公司,臺北市錦州街３０８號１樓,3,770915,811020,25.0597604,121.5376186
22555003,統一超商股份有限公司,23111921,台北巿第１２９分公司,臺北市大安區延吉街237號1樓,1,770917,1051215,25.0365992,121.5557359
22555003,統一超商股份有限公司,23112787,台北市第１３０分公司,臺北市興隆路二段219號1樓,3,771003,1000831,25.001203,121.55029
22555003,統一超商股份有限公司,23116518,台北巿第１３４分公司,臺北市士林區至誠路二段31、31-1號1樓,1,771213,1060329,25.1016862,121.5294121
22555003,統一超商股份有限公司,23218058,台北巿第１３６分公司,臺北市中正區汀州路一段127、129號1樓,1,771228,1051215,25.0280544,121.5095298
22555003,統一超商股份有限公司,23221574,台北巿第１４０分公司,臺北市民權東路６段八十八號１樓,3,780216,811020,25.0624323,121.528099
22555003,統一超商股份有限公司,23357240,台北巿第一四二分公司,臺北市大安區敦化南路1段187巷29號1樓,1,780317,1051215,25.0424056,121.5492362
22555003,統一超商股份有限公司,23357810,台北巿第１４３分公司,臺北市中山區龍江路322、322-1、322-2號1樓,1,780327,1051215,25.0649511,121.5408316
22555003,統一超商股份有限公司,23357826,台北市第一四四分公司,臺北市中山區北安路六二一巷四八號一樓,1,780419,       ,25.0796593,121.5428669
22555003,統一超商股份有限公司,23360081,台北巿第１４７分公司,臺北市中山區八德路二段282號1樓,1,780421,1051215,25.0468994,121.5416956
22555003,統一超商股份有限公司,23361997,台北巿第８３分公司,臺北市延吉街１３１巷十九、二十一號１樓,1,780516,860623,25.0421022,121.5544691
22555003,統一超商股份有限公司,23362829,台北市第１４８分公司,臺北市文山區指南路二段99、101號1樓,1,780530,1051215,24.987798,121.5755575
22555003,統一超商股份有限公司,23413714,台北巿第１４９分公司,臺北市西園路二段１２８號１樓,1,780605,       ,25.0305846,121.4963626
22555003,統一超商股份有限公司,23413720,台北市第一五○分公司,臺北市中正區汀州路二段210號1樓,1,780605,1000217,25.0223503,121.5236954
22555003,統一超商股份有限公司,23413735,台北市第一五一分公司,臺北市文山區忠順街2段10號1樓,1,780605,991129,24.9845115,121.5623773
22555003,統一超商股份有限公司,23413741,台北市第１５２分公司,臺北市崇德街九十五號１樓,3,780605,811020,25.0171727,121.5659955
22555003,統一超商股份有限公司,23414827,台北市第１５４分公司,臺北市莊敬路３１３、３１５號１樓,3,780623,920417,25.0283149,121.563492
22555003,統一超商股份有限公司,23414869,台北市第１５３分公司,臺北市青年路四十八號１樓,3,780623,811020,25.0228968,121.5026855
22555003,統一超商股份有限公司,23415699,台北巿第１５５分公司,臺北市成功路三段六十九號１樓,3,780629,910705,25.0329694,121.5654177
22555003,統一超商股份有限公司,23415966,台北市第１５６分公司,臺北市公園路三十二號１樓,3,780630,811020,25.0412685,121.5160001
22555003,統一超商股份有限公司,23416389,台北市第一五七分公司,臺北市大同區蘭州街135號1樓、昌吉街72、74、76號,1,780630,1020730,25.0657981,121.5158444
22555003,統一超商股份有限公司,23418133,台北巿第１５８分公司,臺北市光明路１６２、１６４號１號,3,780728,811020,25.134887,121.502609
22555003,統一超商股份有限公司,23472467,台北巿第１６０分公司,臺北市大安區建國南路二段151巷6、8號1樓,1,780922,1051215,25.028705,121.5384399
22555003,統一超商股份有限公司,23472895,臺北巿第１６１分公司,臺北市南港區忠孝東路6段448號1樓,1,781003,1051215,25.0453509,121.5829816
22555003,統一超商股份有限公司,23473402,台北市第一六三分公司,臺北市中山區復興北路六四號一樓,1,781103,       ,25.0570456,121.5442372
22555003,統一超商股份有限公司,23530017,臺北巿第１６６分公司,臺北市景興路１１３、１１５號１樓,1,781026,1051215,24.9949306,121.5448302
22555003,統一超商股份有限公司,23530369,臺北巿第１６７分公司,臺北市大同區長安西路271號1樓、長安西路273巷2號1樓,1,781101,1000727,25.0521523,121.5106535
22555003,統一超商股份有限公司,23530375,臺北巿第１６８分公司,臺北市中和街476、478、480號1樓,1,781101,1001214,25.1452869,121.4952017
22555003,統一超商股份有限公司,23530852,臺北巿第１７０分公司,臺北市士林區大北路14、16號1樓,1,781110,1001025,25.0898549,121.5266474
22555003,統一超商股份有限公司,23532129,臺北巿第１７１分公司,臺北市士林區忠義街68號1樓,1,781229,1051215,25.1058747,121.531307
22555003,統一超商股份有限公司,23532134,台北巿第一七二分公司,臺北市萬華區萬青街168號1樓,1,781129,1051215,25.0235166,121.5014902
22555003,統一超商股份有限公司,23640963,台北巿第１７８分公司,臺北市大安區和平東路3段97號、97-1號1樓,1,790514,1060721,25.02644,121.5332197
22555003,統一超商股份有限公司,23641490,臺北巿第１８０分公司,臺北市文山區木柵路2段88、90號1樓、興隆路4段26號1樓,1,790522,1121128,24.9886102,121.5600638
22555003,統一超商股份有限公司,23822160,臺北巿第１８１分公司,臺北市萬華區漢中街51號1樓,1,790619,1060721,25.0440493,121.5074794
22555003,統一超商股份有限公司,23822513,臺北巿第１８２分公司,臺北市南港區同德路七十七號１樓,3,790619,830915,25.0458828,121.5854629
22555003,統一超商股份有限公司,23822529,臺北巿第１８３分公司,臺北市松隆路２８６號１樓,3,790619,811020,25.0329694,121.5654177
22555003,統一超商股份有限公司,23825146,台北巿第１８４分公司,臺北市大安區復興南路2段151巷41號1樓,1,790809,1060721,25.0284311,121.5453837
22555003,統一超商股份有限公司,23825434,臺北巿第１８５分公司,臺北市北投區自強街82號1樓,1,790816,1060721,25.1105469,121.5146435
22555003,統一超商股份有限公司,23826118,臺北巿第１８６分公司,臺北市延吉街二十八號１樓,3,790827,811020,25.0468097,121.5535908
22555003,統一超商股份有限公司,23826124,台北巿第１８７分公司,臺北市中正區汀州路3段249號1樓,1,790827,1060821,25.01372,121.5343196
22555003,統一超商股份有限公司,23827046,臺北巿第１９０分公司,臺北市大安區信義路二段２２４號１樓,1,790917,       ,25.033379,121.531445
22555003,統一超商股份有限公司,23827236,台北巿第１９１分公司,臺北市忠孝東路四段２１６巷27弄1號1樓,1,790924,1000927,25.0400239,121.5533125
22555003,統一超商股份有限公司,23827539,台北巿第１９３分公司,臺北市大安區復興南路二段82-1、82-2號1樓,1,791006,1080717,25.0309676,121.5432809
22555003,統一超商股份有限公司,23827931,臺北巿第１９４分公司,臺北市北投區知行路282號、284號1樓,1,791022,1060721,25.1215851,121.4674609
22555003,統一超商股份有限公司,23827947,臺北巿第１９５分公司,臺北市內湖區內湖路一段445號1樓,1,791022,1000819,25.081272,121.5723473
22555003,統一超商股份有限公司,23983030,臺北巿第１９６分公司,臺北市文山區指南路一段34、36號1樓,1,791026,1001101,24.9876011,121.5696875
22555003,統一超商股份有限公司,23983968,臺北巿第２００分公司,臺北市中山區龍江路４０３號１樓,1,791120,811020,25.0657809,121.541087
22555003,統一超商股份有限公司,23984093,臺北巿第２０２分公司,臺北市永吉路三十巷１７８弄１號１樓,1,791122,811020,25.045345,121.571426
22555003,統一超商股份有限公司,24792559,台北市第七八六分公司,臺北市萬華區東園街78號1樓,1,1040528,       ,25.0250054,121.4967898
22555003,統一超商股份有限公司,24792707,台北市第七八七分公司,臺北市大安區羅斯福路3段283巷14弄16號1樓,3,1040529,       ,25.0183883,121.5316645
22555003,統一超商股份有限公司,24793311,台北市第七八九分公司,臺北市士林區中山北路7段141巷6-1號1樓,1,1040615,       ,25.1232017,121.5315718
22555003,統一超商股份有限公司,24793419,台北市第七九０分公司,臺北市士林區延平北路5段228號1樓、230號1、2樓,1,1040611,       ,25.0841769,121.5101108
22555003,統一超商股份有限公司,24793516,台北市第七八八分公司,臺北市松山區八德路2段366巷7號1樓,1,1040615,       ,25.047763,121.546073
22555003,統一超商股份有限公司,24795367,台北市第七九一分公司,臺北市中正區羅斯福路3段316巷16號1樓,3,1040722,       ,25.0155,121.5323132
22555003,統一超商股份有限公司,24795514,台北市第七九二分公司,臺北市松山區八德路4段697號1樓,1,1040727,       ,25.050254,121.5765508
22555003,統一超商股份有限公司,24799770,台北市第七九四分公司,臺北市中山區朱崙街60號1樓,3,1041008,       ,25.0498483,121.5435495
22555003,統一超商股份有限公司,24799912,台北市第七九五分公司,臺北市中正區忠孝西路1段66號B1,3,1041013,       ,25.0421407,121.5198716
22555003,統一超商股份有限公司,24799928,台北市第七九三分公司,臺北市大安區信義路3段178號1樓,1,1041013,       ,25.0332397,121.5424514
22555003,統一超商股份有限公司,24801403,台北市第七九七分公司,臺北市信義區松仁路162號、164號1樓,1,1041106,       ,25.0284016,121.5682133
22555003,統一超商股份有限公司,24801522,台北市第七九六分公司,臺北市松山區民生東路3段130巷2之1號1樓,1,1041110,       ,25.0575733,121.5398306
22555003,統一超商股份有限公司,24802515,台北市第七九八分公司,臺北市大同區延平北路1段87、89、91、93號1樓,1,1041124,1070903,25.0627243,121.5113064
22555003,統一超商股份有限公司,24802607,台北市第七九九分公司,臺北市信義區松信路148號1樓,1,1041126,       ,25.0436859,121.5718779
22555003,統一超商股份有限公司,24803654,台北市第八００分公司,臺北市內湖區民權東路6段82號1樓,1,1041215,       ,25.068714,121.585755
22555003,統一超商股份有限公司,24803845,台北市第八五六分公司,臺北市北投區公館路259號1樓,3,1041217,       ,25.1254862,121.508252
22555003,統一超商股份有限公司,24807223,台北市第八五七分公司,臺北市士林區天母東路8巷39號1樓、天母東路8巷41弄1號1樓,1,1050217,       ,25.1162753,121.5315862
22555003,統一超商股份有限公司,24808503,台北市第八五八分公司,臺北市南港區玉成街69號1樓,3,1050315,       ,25.0488814,121.5818826
22555003,統一超商股份有限公司,24809720,台北市第八五九分公司,臺北市中正區館前路59號1樓,1,1050411,       ,25.0447881,121.5151474
22555003,統一超商股份有限公司,24810347,台北市第八六五分公司,臺北市松山區延吉街27之1號1樓,1,1050705,       ,25.0460362,121.5536948
22555003,統一超商股份有限公司,24811654,台北市第八六七分公司,臺北市內湖區五分街9、11號1樓,1,1050801,       ,25.0678681,121.6123873
22555003,統一超商股份有限公司,24811937,台北市第八六六分公司,臺北市內湖區新湖二路329號1樓,1,1050808,       ,25.0645249,121.5834011
22555003,統一超商股份有限公司,24813127,台北市第九三一分公司,臺北市萬華區西園路1段278號1樓,1,1070919,       ,25.0399027,121.5000866
22555003,統一超商股份有限公司,24813338,台北市第九三二分公司,臺北市士林區大東路35號1樓,1,1070928,       ,25.088324,121.524761
22555003,統一超商股份有限公司,24813610,台北市第九三三分公司,臺北市大安區忠孝東路4段313號1樓,1,1071008,       ,25.0420032,121.5334554
22555003,統一超商股份有限公司,24813750,台北市第九三四分公司,臺北市內湖區瑞光路583巷30號1樓,1,1071011,       ,25.0807552,121.5683419
22555003,統一超商股份有限公司,24813800,台北市第九三五分公司,臺北市萬華區成都路68號1樓,3,1071012,       ,25.042842,121.5052405
22555003,統一超商股份有限公司,24813978,台北市第九三六分公司,臺北市內湖區新湖二路160、162號1樓,1,1071018,       ,25.0629108,121.5796157
22555003,統一超商股份有限公司,24814575,台北市第九三七分公司,臺北市大安區光復南路98-3號、98-5號1樓,1,1071107,       ,25.0440906,121.5575028
22555003,統一超商股份有限公司,24814955,台北市第九０三分公司,臺北市文山區木柵路1段284、286號1樓,1,1071121,1121128,24.99168,121.5711331
22555003,統一超商股份有限公司,24815309,台北市第九三八分公司,臺北市中正區新生南路1段170巷14-3號1樓,1,1071204,       ,25.0343354,121.53242
22555003,統一超商股份有限公司,24815504,台北市第九三九分公司,臺北市中山區林森北路624、626號1樓,1,1071207,       ,25.0673266,121.5255489
22555003,統一超商股份有限公司,24815552,台北市第九四０分公司,臺北市中山區南京東路2段100號1樓,1,1071210,       ,25.051898,121.5281835
22555003,統一超商股份有限公司,24815981,台北市第九四一分公司,臺北市松山區南京東路五段229、231號1樓,3,1071219,       ,25.0515958,121.5646051
22555003,統一超商股份有限公司,24816454,台北市第九四三分公司,臺北市大安區仁愛路4段151巷33號、忠孝東路4段216巷32弄19、21號1樓,1,1080110,       ,25.0402512,121.5519354
22555003,統一超商股份有限公司,24816460,台北市第九四二分公司,臺北市大同區迪化街1段13號1樓,1,1080110,       ,25.0540928,121.5100161
22555003,統一超商股份有限公司,24816567,台北市第九四四分公司,臺北市南港區經貿二路2號B1樓,1,1080115,       ,25.0562386,121.6156184
22555003,統一超商股份有限公司,24816623,台北市第九四五分公司,臺北市信義區永吉里松山路11號B1樓,1,1080118,       ,25.0492016,121.5783212
22555003,統一超商股份有限公司,24816638,台北市第九五四分公司,臺北市士林區延平北路6段229、231號1樓,1,1080223,       ,25.0892484,121.5051137
22555003,統一超商股份有限公司,24816692,台北市第九五五分公司,臺北市松山區南京東路五段291巷4-1、4-2號1樓,1,1080227,       ,25.051712,121.5660347
22555003,統一超商股份有限公司,24817073,台北市第九五六分公司,臺北市南港區忠孝東路7段369號2樓,1,1080314,1130523,25.0457681,121.5828226
22555003,統一超商股份有限公司,24817340,台北市第九０四分公司,臺北市中正區同安街62號1樓,1,1080321,1121128,25.0234099,121.5210531
22555003,統一超商股份有限公司,24817405,台北市第九五七分公司,臺北市大安區復興南路2段271巷2號1樓,1,1080326,       ,25.025257,121.5438443
22555003,統一超商股份有限公司,24817720,台北市第九五八分公司,臺北市中正區館前路45號1樓,3,1080403,       ,25.0451905,121.515243
22555003,統一超商股份有限公司,24817778,台北市第九五九分公司,臺北市南港區南港路3段3號1樓,1,1080408,       ,25.0540291,121.5922282
22555003,統一超商股份有限公司,24817897,台北市第九六０分公司,臺北市中山區敬業四路1號1樓,1,1080411,       ,25.0825191,121.5589843
22555003,統一超商股份有限公司,27230602,台北市第五五八分公司,臺北市萬華區西園路一段二一四號一樓,3,930102,940509,25.0371203,121.4994552
22555003,統一超商股份有限公司,27231031,台北市第五五九分公司,臺北市士林區中正路235巷14號1樓,1,930116,1121127,25.094736,121.525911
22555003,統一超商股份有限公司,27232019,台北市第五六０分公司,臺北市中正區愛國東路一０二號一樓,3,930211,930520,25.0324735,121.5224055
22555003,統一超商股份有限公司,27232290,台北市第五六一分公司,臺北市大安區忠孝東路三段一六０號一樓,1,930224,1121128,25.0417673,121.5381808
22555003,統一超商股份有限公司,27232427,台北市第五六二分公司,臺北市信義區松光里忠孝東路五段五二四巷一弄一，一之一號,1,930227,1121128,25.0458863,121.5775992
22555003,統一超商股份有限公司,27232664,台北市第六十分公司,臺北市大安區辛亥路三段157巷32號1樓、臥龍街188巷1號1樓,1,930303,1020118,25.0180835,121.5507567
22555003,統一超商股份有限公司,27232670,台北市第三六三分公司,臺北市中正區重慶南路一段六十六號一樓,3,930303,941031,25.0421407,121.5198716
22555003,統一超商股份有限公司,27232685,台北市第四七八分公司,臺北市文山區萬興里秀明路二段六號,3,930303,       ,24.987854,121.5759657
22555003,統一超商股份有限公司,27233925,台北市第七十四分公司,臺北市中正區忠孝西路一段五十號之一（站前地下街）,3,930324,       ,25.0458991,121.5158162
22555003,統一超商股份有限公司,27234585,台北市第五二五分公司,臺北市中正區新營里臺北市中正區南福里寧波西街七十八之三號一樓,3,930331,940531,25.0305498,121.5172072
22555003,統一超商股份有限公司,27234656,台北市第五六三分公司,臺北市萬華區寶興街184、186號1樓,1,930405,991109,25.0237514,121.4952627
22555003,統一超商股份有限公司,27234662,台北市第五六四分公司,臺北市士林區中正路五０三號一樓,3,930405,       ,25.0954204,121.5272584
22555003,統一超商股份有限公司,27234678,台北市第五六五分公司,臺北市士林區承德路四段39號1樓,1,930405,1121127,25.081038,121.5228561
22555003,統一超商股份有限公司,27235352,台北市第三五三分公司,臺北市中山區長春路一六八號一樓,3,930421,       ,25.0550515,121.5260049
22555003,統一超商股份有限公司,27235732,台北市第五十三分公司,臺北市中山區中山北路三段23之6號1樓,1,930429,1121127,25.0647437,121.5224829
22555003,統一超商股份有限公司,27236177,台北市第五六六分公司,臺北市大同區蓬萊里重慶北路三段五十三之一號一樓,3,930512,930609,25.0657368,121.5137611
22555003,統一超商股份有限公司,27236486,台北市第五六七分公司,臺北市內湖區康寧路一段一六０號,1,930518,1121128,25.0794064,121.5940031
22555003,統一超商股份有限公司,27236562,台北市第五六八分公司,臺北市南京東路十六號地下商店街M十三區A二號,3,930518,931101,25.0329694,121.5654177
22555003,統一超商股份有限公司,27236578,台北市第五六九分公司,臺北市南京西路十六號中山站東側販賣店A二＋A三號,3,930518,       ,25.052685,121.520391
22555003,統一超商股份有限公司,27239104,台北市第五七０分公司,臺北市大安區延吉街七十二號一樓,1,930713,1121128,25.0196601,121.5328335
22555003,統一超商股份有限公司,27239110,台北市第五七一分公司,臺北市大安區東豐街43、45號1樓,1,930713,1000110,25.0361406,121.5466324
22555003,統一超商股份有限公司,27241018,台北市第五七二分公司,臺北市大安區辛亥路2段171巷8號,1,930820,1121128,25.0221212,121.5409496
22555003,統一超商股份有限公司,27241495,台北市第五七三分公司,臺北市中正區南昌路二段一七三號,3,930830,       ,25.026157,121.5219207
22555003,統一超商股份有限公司,27241501,台北市第五七四分公司,臺北市北投區泉源路12-1號1樓,3,930830,991216,25.1370315,121.504239
22555003,統一超商股份有限公司,27242831,台北市第五七五分公司,臺北市大同區雙連里承德路二段一八九、一九一號一樓,3,930914,940110,25.0588088,121.5182659
22555003,統一超商股份有限公司,27242902,台北市第四四八分公司,臺北市士林區中正路六三七號,3,930914,       ,25.0919088,121.5180051
22555003,統一超商股份有限公司,27243352,台北市第五七六分公司,臺北市士林區文林路102號地下1樓之1~5、地下1樓之32,3,930921,1000726,25.0877178,121.5263956
22555003,統一超商股份有限公司,27245035,台北市第一一六分公司,臺北市中正區光復里延平南路四十七號一樓,1,931029,1121128,25.044565,121.5102632
22555003,統一超商股份有限公司,27245605,台北市第四０六分公司,臺北市士林區雨聲街六十三號,3,931108,931229,25.0950492,121.5246077
22555003,統一超商股份有限公司,27246983,台北市第三七八分公司,臺北市信義區松德路二七一號,1,931208,1121128,25.0345658,121.5746318
22555003,統一超商股份有限公司,27246999,台北市第四二一分公司,臺北市士林區大東路八十二號,3,931208,       ,25.0900093,121.5255087
22555003,統一超商股份有限公司,27247884,台北市第二十二分公司,臺北市大同區延平北路3段61-4、61-5號1樓,1,931221,1030508,25.0656685,121.5111749
22555003,統一超商股份有限公司,27247929,台北市第四八四分公司,臺北市士林區忠誠路一段二十三號一樓,3,931221,       ,25.106114,121.5238953
22555003,統一超商股份有限公司,27248096,台北市第四七七分公司,臺北市內湖區內湖路二段一０三巷一０二號一樓,3,931223,       ,25.0811641,121.5867075
22555003,統一超商股份有限公司,27248639,台北市第五七七分公司,臺北市大安區車層里忠孝東路４段２１８號,3,940103,940125,25.041868,121.544056
22555003,統一超商股份有限公司,27249551,台北市第五三九分公司,臺北市文山區興業里興隆路2段244巷20號,1,940120,1040707,25.0001517,121.5531456
22555003,統一超商股份有限公司,27250114,台北市第四八０分公司,臺北市中山區八德路2段314號1樓,1,940201,1040707,25.0471378,121.5428431
22555003,統一超商股份有限公司,27250120,台北市第四四０分公司,臺北市中山區遼寧街110號1樓 / 遼寧街108巷1號1樓,1,940201,1080717,25.0525531,121.5419221
22555003,統一超商股份有限公司,27250374,台北市第五三四分公司,臺北市文山區景華里景興路14號,1,940216,1040707,24.9978477,121.5445123
22555003,統一超商股份有限公司,27250607,台北市第五七八分公司,臺北市中正區網溪里廈門街１１４巷２號１樓,3,940221,       ,25.0231224,121.5173258
22555003,統一超商股份有限公司,27250613,台北市第五七九分公司,臺北市大安區虎嘯里樂業街４３號１樓,3,940221,       ,25.0227588,121.5499815
22555003,統一超商股份有限公司,27250796,台北市第三十一分公司,臺北市中山區南京東２段２３號１樓,3,940221,       ,25.0534559,121.5218167
22555003,統一超商股份有限公司,27250901,台北市第五八０分公司,臺北市文山區興光里興隆路3段173、175號,1,940223,1040707,24.9964885,121.5601441
22555003,統一超商股份有限公司,27252324,台北市第五八一分公司,臺北市大同區延平北路4段16、18號1樓,1,940323,1001025,25.0691307,121.5107812
22555003,統一超商股份有限公司,27253007,台北市第四五七分公司,臺北市中山區大直街１１號１樓,3,940330,       ,25.0808412,121.546518
22555003,統一超商股份有限公司,27254147,台北市第四七三分公司,臺北市士林區天母東路8巷96、98號1樓,1,940421,1000511,25.1143705,121.5301134
22555003,統一超商股份有限公司,27254759,台北市第五三二分公司,臺北市文山區試院里和興路５２巷９號１樓,3,940426,       ,24.9844148,121.5479497
22555003,統一超商股份有限公司,27255286,台北市第四五九分公司,臺北市內湖區環山路２段５５號,3,940509,941011,25.0851256,121.5737541
22555003,統一超商股份有限公司,27256905,台北市第五四一分公司,臺北市士林區天玉街8號,3,940602,1040707,25.119848,121.5269699
22555003,統一超商股份有限公司,27257263,台北市第五八二分公司,臺北市內湖區五分街1號1樓,3,940613,1040707,25.0672828,121.6168792
22555003,統一超商股份有限公司,27257279,台北市第五八三分公司,臺北市文山區萬盛里羅斯福路５段５９號,3,940613,       ,25.00657,121.5391642
22555003,統一超商股份有限公司,27257284,台北市第五八四分公司,臺北市中山區長春路182號1、2樓,1,940613,1050111,25.0547094,121.5344161
22555003,統一超商股份有限公司,27257496,台北市第八十八分公司,臺北市內湖區紫雲里星雲街136號1樓,1,940608,1040707,25.0797897,121.594971
22555003,統一超商股份有限公司,27257502,台北市第五六八分公司,臺北市大安區虎嘯里敦化南路２段２００巷１６號,3,940608,       ,25.0227879,121.5475389
22555003,統一超商股份有限公司,27257518,台北市第五八五分公司,臺北市文山區萬年里羅斯福路5段170巷33、35號1樓,1,940608,1040707,25.0046055,121.5366918
22555003,統一超商股份有限公司,27258045,台北市第五八六分公司,臺北市內湖區星雲街１３６號１樓,3,940622,940719,25.0797897,121.594971
22555003,統一超商股份有限公司,27258158,台北市第五八七分公司,臺北市中正區羅斯福路3段80、82號1樓,1,940622,1121127,25.0219489,121.5263566
22555003,統一超商股份有限公司,27258410,台北市第五八八分公司,臺北市內湖區內湖路1段737巷35號1樓,1,940629,1040707,25.0798279,121.5787975
22555003,統一超商股份有限公司,27258798,台北市第五八九分公司,臺北市中山區長安東路２段２０３、２０５號１樓,3,940704,       ,25.049564,121.521914
22555003,統一超商股份有限公司,27259656,台北市第三八七分公司,臺北市萬華區富民里廣州街148號,1,940720,1040707,25.036549,121.5005814
22555003,統一超商股份有限公司,27922226,台北市第一二一分公司,臺北市松山區塔悠路31、33號1樓,1,940727,1080717,25.0507119,121.5715694
22555003,統一超商股份有限公司,27922979,台北市第五七七分公司,臺北市松山區撫遠街197、199號1樓,1,940811,1000630,25.0597724,121.5681217
22555003,統一超商股份有限公司,27923273,台北市第五九０分公司,臺北市士林區中山北路7段126號,3,940816,1040707,25.1224409,121.5320369
22555003,統一超商股份有限公司,27923739,台北市第四一六分公司,臺北市文山區萬芳里萬和街6號2樓之1,1,940824,1040707,25.0019013,121.5672934
22555003,統一超商股份有限公司,27924168,台北市第五九一分公司,臺北市萬華區錦德里１鄰西園路２段２６３號１樓,3,940905,       ,25.0251948,121.4921535
22555003,統一超商股份有限公司,27924462,台北市第五九二分公司,臺北市內湖區星雲街17、17-1號１樓,1,940907,1000302,25.0782087,121.5905769
22555003,統一超商股份有限公司,27924478,台北市第五九三分公司,臺北市內湖區舊宗路２段１１３號１樓,3,940907,       ,25.0692049,121.574991
22555003,統一超商股份有限公司,27924483,台北市第五九四分公司,臺北市松山區中正里１２鄰南京東路３段２５６巷４６號１樓,3,940907,       ,25.0520634,121.5527246
22555003,統一超商股份有限公司,27924499,台北市第五九五分公司,臺北市中正區中華路２段７３號１樓,3,940907,       ,25.034464,121.506021
22555003,統一超商股份有限公司,27924857,台北市第一七四分公司,臺北市南港區福德街373巷25號1樓,1,940914,1040707,25.0397048,121.5915585
22555003,統一超商股份有限公司,27925080,台北市第五七五分公司,臺北市松山區健康路11號1樓,1,940916,990824,25.0532337,121.5524327
22555003,統一超商股份有限公司,27925429,台北市第五九六分公司,臺北市松山區松基里復興北路231巷6號1樓,3,940926,1040707,25.0569912,121.5449717
22555003,統一超商股份有限公司,27925547,台北市第五九七分公司,臺北市內湖區環山路３段３號１樓,3,940926,       ,25.0839707,121.5783727
22555003,統一超商股份有限公司,27926264,台北市第五九八分公司,臺北市萬華區西園路１段１４５號龍山地一下街商場第二十五號店舖,3,941004,941031,25.0399027,121.5000866
22555003,統一超商股份有限公司,27927854,台北市第十六分公司,臺北市士林區福林路191號1樓,3,941031,1040707,25.0969674,121.5326538
22555003,統一超商股份有限公司,27928657,台北市第五五八分公司,臺北市中正區濟南路２段50、52號1樓,1,941116,1020118,25.0402102,121.5311782
22555003,統一超商股份有限公司,27928663,台北市第五九九分公司,臺北市北投區湖山路１段１２號,3,941116,950124,25.1525261,121.5449116
22555003,統一超商股份有限公司,27929023,台北市第六００分公司,臺北市中山區建國北路２段６５號１樓,3,941125,       ,25.0558735,121.5372495
22555003,統一超商股份有限公司,27929038,台北市第六０一分公司,臺北市松山區復興北路179號,1,941125,1040707,25.0543299,121.5443518
22555003,統一超商股份有限公司,27929207,台北市第六０二分公司,臺北市松山區延壽街323號1樓,1,941124,1040707,25.0568644,121.5605703
22555003,統一超商股份有限公司,27930675,台北市第六０三分公司,臺北市玉門街１號,3,941212,       ,25.0703871,121.5205405
22555003,統一超商股份有限公司,27930794,台北市第六０四分公司,臺北市中山區錦西街16號,1,941213,1040707,25.0602702,121.5212868
22555003,統一超商股份有限公司,27931463,台北市第六０五分公司,臺北市大安區敦化南路2段63巷7號1樓,1,941220,1000307,25.0311571,121.5495552
22555003,統一超商股份有限公司,27932126,台北市第六０六分公司,臺北市文山區景行里羅斯福路6段391號,1,941227,1040707,24.9922868,121.5408151
22555003,統一超商股份有限公司,27932131,台北市第六０七分公司,臺北市萬華區忠德里東園街28巷56、58號1樓,1,941227,1000823,25.0262083,121.4944708
22555003,統一超商股份有限公司,27932569,台北市第六０八分公司,臺北市萬華區西藏路125巷17號及129-9號,1,950103,1040707,25.0280314,121.5024904
22555003,統一超商股份有限公司,27933151,台北市第六一０分公司,臺北市大安區新生南路３段９４巷３號１樓,3,950112,1010830,25.0175103,121.5330412
22555003,統一超商股份有限公司,27933455,台北市第六０九分公司,臺北市信義區光復南路４１９巷４１號,1,950116,1010830,25.0365877,121.558483
22555003,統一超商股份有限公司,27934010,台北市第五一六分公司,臺北市大同區延平北路４段１５７、１５９號１樓,1,950124,1010830,25.0730776,121.5113704
22555003,統一超商股份有限公司,27934428,台北市第三十分公司,臺北市松山區南京東路５段334、336號1樓,1,950206,1001228,25.0518277,121.5574266
22555003,統一超商股份有限公司,27934969,台北市第一九二分公司,臺北市中山區建國北路３段89、91號1樓,1,950220,1010426,25.0656223,121.5368585
22555003,統一超商股份有限公司,27937142,台北市第一九七分公司,臺北市士林區承德路４段３０號,1,950404,1010830,25.0804122,121.5220109
22555003,統一超商股份有限公司,27937157,台北市第五二五分公司,臺北市中山區松江路２０８號１樓,1,950404,1010830,25.0577782,121.5328522
22555003,統一超商股份有限公司,27939465,台北市第九十八分公司,臺北市中正區東門里信義路1段13-1號1樓,3,950515,1010830,25.0385177,121.5193367
22555003,統一超商股份有限公司,27939470,台北市第一二四分公司,臺北市中山區北安路839-1號,1,950515,1010830,25.084739,121.5574658
22555003,統一超商股份有限公司,27940028,台北市第三六三分公司,臺北市大安區光復南路180巷12號,1,970103,1010830,25.0425268,121.5569641
22555003,統一超商股份有限公司,27940075,台北市第六一一分公司,臺北市北投區文林北路98號1樓,3,950525,       ,25.10564,121.517646
22555003,統一超商股份有限公司,27941482,台北市第六一二分公司,臺北市士林區基河路128號,3,950622,1010625,25.0885079,121.5233244
22555003,統一超商股份有限公司,27942454,台北市第一七七分公司,臺北市萬華區萬大路292、294號1樓,1,950712,991108,25.0252818,121.5002568
22555003,統一超商股份有限公司,27943117,台北市第二四三分公司,臺北市信義區莊敬路178巷2號,1,950726,1010830,25.0308964,121.5610602
22555003,統一超商股份有限公司,27944853,台北市第一六九分公司,臺北市萬華區新起里10鄰長沙街2段104號1樓,3,950823,1010830,25.0403173,121.5044246
22555003,統一超商股份有限公司,27945044,台北市第五九九分公司,臺北市大安區永康里永康街2巷12號1樓,3,950828,       ,25.0331408,121.5292143
22555003,統一超商股份有限公司,27945641,台北市第四五九分公司,臺北市內湖區麗山街68巷12號1樓,3,950911,       ,25.0819854,121.5792966
22555003,統一超商股份有限公司,27945874,台北市第一七六分公司,臺北市南港區聯成里昆陽街150-1、150-3號1樓,1,950919,1010830,25.0491107,121.5941932
22555003,統一超商股份有限公司,27946424,台北市第五一二分公司,臺北市北投區中央北路4段466、468號,3,950926,       ,25.1288465,121.4695653
22555003,統一超商股份有限公司,27947084,台北市第六一四分公司,臺北市中山區長春路257號1樓,1,951016,1010830,25.0547562,121.5406323
22555003,統一超商股份有限公司,27947177,台北市第六一三分公司,臺北市大安區通化里光復南路616號1樓,1,951018,1010830,25.0323076,121.5573011
22555003,統一超商股份有限公司,27947227,台北市第六一五分公司,臺北市信義區西村里松壽路24號1樓,3,951018,       ,25.035447,121.5676776
22555003,統一超商股份有限公司,27948416,台北市第六一六分公司,臺北市中山區南京東路1段132巷8號1樓,1,951115,1010830,25.0523164,121.5281004
22555003,統一超商股份有限公司,27948422,台北市第六一七分公司,臺北市內湖區內湖路2段103巷64號,3,951115,       ,25.0827648,121.5809655
22555003,統一超商股份有限公司,27948464,台北市第六一八分公司,臺北市內湖區瑞光路580號1樓,1,951116,1010830,25.0800521,121.5664585
22555003,統一超商股份有限公司,27948794,台北市第六一九分公司,臺北市信義區市府路1號B2,3,951127,       ,25.037531,121.5639969
22555003,統一超商股份有限公司,27949007,台北市第六二０分公司,臺北市內湖區康樂街213號1樓,1,951129,1010830,25.0761356,121.6217171
22555003,統一超商股份有限公司,27949560,台北市第六二一分公司,臺北市中正區三愛里連雲街81號1樓,1,951207,1010830,25.0342885,121.530198
22555003,統一超商股份有限公司,27949962,台北市第六二二分公司,臺北市中正區黎明里信陽街12、14號1樓,3,951214,981106,25.0445433,121.515903
22555003,統一超商股份有限公司,27949978,台北市第六二三分公司,臺北市萬華區華中里萬大路486巷59弄1樓,3,951214,1010830,25.0204044,121.4958767
22555003,統一超商股份有限公司,27949983,台北市第六二四分公司,臺北市信義區興隆里忠孝東路4段514號,3,951214,1010830,25.041868,121.544056
22555003,統一超商股份有限公司,27950186,台北市第六二五分公司,臺北市中正區臨沂街74、76號,1,951218,1010830,25.0345538,121.5278203
22555003,統一超商股份有限公司,27950192,台北市第六二六分公司,臺北市中正區廈門街113巷17號1樓,3,951218,1010830,25.0235486,121.5191883
22555003,統一超商股份有限公司,27950812,台北市第六二七分公司,臺北市大安區樂業街71、73號1樓,1,951228,1010830,25.0219475,121.550934
22555003,統一超商股份有限公司,27950828,台北市第六二八分公司,臺北市信義區松德路200巷10號,1,951228,1010903,25.0347979,121.5736087
22555003,統一超商股份有限公司,27950968,台北市第九十二分公司,臺北市北投區中和街10號,1,960103,1010830,25.1376026,121.5033922
22555003,統一超商股份有限公司,27951381,台北市第四九六分公司,臺北市信義區嘉興街181巷21號,1,960111,1010830,25.0262673,121.5573696
22555003,統一超商股份有限公司,27951397,台北市第五九八分公司,臺北市信義區虎林街222巷8號,3,960111,1010830,25.037234,121.5769464
22555003,統一超商股份有限公司,27951404,台北市第六二九分公司,臺北市北投區文林北路98、100號1樓,1,960111,1070903,25.10564,121.517646
22555003,統一超商股份有限公司,27951410,台北市第六三○分公司,臺北市大安區敦化南路2段97號1樓,3,960111,       ,25.0288504,121.5494477
22555003,統一超商股份有限公司,28410384,台北市第六三一分公司,臺北市南港區成福里成福路145、147號,1,960130,1010903,25.0416155,121.5878188
22555003,統一超商股份有限公司,28410666,台北市第一三五分公司,臺北市文山區樟新里木新路3段276號,1,960205,1010830,24.9812083,121.5581964
22555003,統一超商股份有限公司,28410906,台北市第五九七分公司,臺北市中正區寶慶路32-1號B1樓,3,960212,       ,25.0414776,121.5089709
22555003,統一超商股份有限公司,28411530,台北市第六三二分公司,臺北市中正區永功里11鄰汀州路1段285號1樓,1,960307,1010903,25.0269395,121.511146
22555003,統一超商股份有限公司,28411546,台北市第六三三分公司,臺北市士林區福志里16鄰福志路50號,3,960307,       ,25.0990811,121.5305131
22555003,統一超商股份有限公司,28411551,台北市第六三四分公司,臺北市大安區忠孝東路4段223巷42號,1,960307,1010903,25.0437274,121.553299
22555003,統一超商股份有限公司,28412030,台北市第六三五分公司,臺北市信義區忠孝東路五段372巷28弄1號,3,960319,       ,25.038777,121.5736174
22555003,統一超商股份有限公司,28412046,台北市第六三六分公司,臺北市信義區興隆里逸仙路42巷27號,3,960319,1010702,25.0404851,121.5632201
22555003,統一超商股份有限公司,28412051,台北市第六三七分公司,臺北市文山區軍功路137、139號,3,960319,       ,25.0063952,121.5692402
22555003,統一超商股份有限公司,28412480,台北市第六三八分公司,臺北市信義區永吉路278巷58弄2號,1,960326,1010903,25.043485,121.5740395
22555003,統一超商股份有限公司,28412664,台北市第六三九分公司,臺北市中山區江寧里復興北路402巷24號,3,960328,       ,25.0617239,121.5424834
22555003,統一超商股份有限公司,28412670,台北市第六四０分公司,臺北市中山區興安街99號,3,960328,1010903,25.0561481,121.5435823
22555003,統一超商股份有限公司,28412685,台北市第六四一分公司,臺北市萬華區華中里萬大路464號,3,960328,1010903,25.0201319,121.4975998
22555003,統一超商股份有限公司,28412849,台北市第六四二分公司,臺北市松山區三民路115號1樓,1,960402,1010903,25.0581029,121.5632285
22555003,統一超商股份有限公司,28413349,台北市第六四三分公司,臺北市萬華區中華路二段602-1、602-2號1樓,1,960412,1010903,25.0244981,121.5097938
22555003,統一超商股份有限公司,28413609,台北市第六四四分公司,臺北市士林區美崙街112號,3,960418,1010903,25.0971019,121.5197452
22555003,統一超商股份有限公司,28413827,台北市第六四五分公司,臺北市中正區黎明里重慶南路1段1號1樓,1,960425,1011016,25.0468814,121.5134147
22555003,統一超商股份有限公司,28414889,台北市第六四六分公司,臺北市士林區中正路115號1樓,3,960516,       ,25.0957715,121.529031
22555003,統一超商股份有限公司,28414895,台北市第二三五分公司,臺北市內湖區內湖路1段411巷17號及19弄1號1樓,1,960516,1040624,25.0823089,121.5683655
22555003,統一超商股份有限公司,28415135,台北市第六四七分公司,臺北市南港區南港路3段9號1樓,3,960523,1000310,25.05395,121.5920067
22555003,統一超商股份有限公司,28415199,台北市第六四八分公司,臺北市信義區松山路455號,1,960523,1010903,25.0397681,121.5780278
22555003,統一超商股份有限公司,28415509,台北市第六四九分公司,臺北市士林區天和里天母東路109號,3,960530,1010903,25.1183199,121.5366358
22555003,統一超商股份有限公司,28417788,台北市第一四一分公司,臺北市大同區重慶北路2段60號、62號1樓,1,960627,1040626,25.0557973,121.5138153
22555003,統一超商股份有限公司,28418013,台北市第四七一分公司,臺北市中山區圓山里中山北路3段57號1樓,1,960705,1010830,25.068247,121.5231709
22555003,統一超商股份有限公司,28418077,台北市第四九七分公司,臺北市松山區光復北路196號1樓,3,960705,       ,25.0550018,121.5556259
22555003,統一超商股份有限公司,28418689,台北市第三八０分公司,臺北市北投區湖山路1段12、14號1樓,1,960726,1120105,25.1525261,121.5449116
22555003,統一超商股份有限公司,28419054,台北市第四七七分公司,臺北市松山區民生東路4段55巷10號1樓,1,960807,1010830,25.0580788,121.555653
22555003,統一超商股份有限公司,28419435,台北市第六一一分公司,臺北市中正區黎明里忠孝西路1段33、35號1樓,1,960813,1010830,25.0444742,121.5155891
22555003,統一超商股份有限公司,28420593,台北市第六五０分公司,臺北市大安區信義路4段197號,3,960906,1010702,25.0334156,121.5514928
22555003,統一超商股份有限公司,28422190,台北市第六五一分公司,臺北市士林區三玉里天母東路50巷25號,1,960926,1010903,25.1174943,121.5334678
22555003,統一超商股份有限公司,28422826,台北市第四０五分公司,臺北市萬華區西門里昆明街81、83號,1,960929,1010830,25.0427638,121.504981
22555003,統一超商股份有限公司,28423825,台北市第二五０分公司,臺北市士林區基河路1號1樓,1,961011,1010830,25.0863079,121.5249585
22555003,統一超商股份有限公司,28424850,台北市第六五三分公司,臺北市文山區木新路3段54、56號1樓,1,961024,1010903,24.9825798,121.5640798
22555003,統一超商股份有限公司,28424866,台北市第六五四分公司,臺北市信義區基隆路1段141號1樓,1,961024,991004,25.0419415,121.5653136
22555003,統一超商股份有限公司,28424893,台北市第六五二分公司,臺北市大安區通化街177號,1,961024,1010903,25.0274369,121.5535944
22555003,統一超商股份有限公司,28428440,台北市第二十一分公司,臺北市文山區木新路三段179、181號1樓、183巷1號1樓,3,970103,1010830,24.9815426,121.5604843
22555003,統一超商股份有限公司,28428455,台北市第二八二分公司,臺北市松山區八德路4段686號1樓,1,970103,1010830,25.0498433,121.5767343
22555003,統一超商股份有限公司,28429258,台北市第四０七分公司,臺北市大安區復興南路2段203號1樓、2樓,1,970114,1040724,25.0262621,121.5436913
22555003,統一超商股份有限公司,28429399,台北市第六五五分公司,臺北市大安區忠孝東路3段217巷1弄2號1樓,1,970117,1010903,25.0417548,121.5396973
22555003,統一超商股份有限公司,28429406,台北市第六五六分公司,臺北市中正區延平南路177號1樓,1,970117,1010903,25.0344686,121.5076277
22555003,統一超商股份有限公司,28429412,台北市第六五七分公司,臺北市大安區和平東路2段63號1樓,1,970117,1010903,25.0267596,121.5229719
22555003,統一超商股份有限公司,28430494,台北市第六五八分公司,臺北市中山區長安東路1段53巷1之3號1樓,1,970218,1010903,25.049818,121.522081
22555003,統一超商股份有限公司,28431557,台北市第六五九分公司,臺北市信義區吳興街346、348號1樓,1,970317,1010903,25.0258308,121.5663254
22555003,統一超商股份有限公司,28432599,台北市第六十一分公司,臺北市大安區安和路1段47號1樓,1,970402,1010830,25.0385717,121.5485595
22555003,統一超商股份有限公司,28432606,台北市第八十五分公司,臺北市文山區景福街252號1樓,1,970402,1010830,24.9932987,121.5401526
22555003,統一超商股份有限公司,28432900,台北市第九十七分公司,臺北市內湖區港富里港墘路15號1樓,3,970409,       ,25.0829435,121.5783443
22555003,統一超商股份有限公司,28433226,台北市第一八九分公司,臺北市信義區虎林街85號1樓,1,970417,1080717,25.0446788,121.5773073
22555003,統一超商股份有限公司,28433507,台北市第六六０分公司,臺北市萬華區武昌街2段114-3、114-4號1樓,1,970423,1080717,25.0451141,121.5048686
22555003,統一超商股份有限公司,28435189,台北市第五九一分公司,臺北市北投區溫泉路70號1樓,1,970523,1080717,25.1351792,121.5048433
22555003,統一超商股份有限公司,28436384,台北市第六六一分公司,臺北市大同區太原路42號1樓,1,970625,1080717,25.050517,121.515144
22555003,統一超商股份有限公司,28437573,台北市第六六三分公司,臺北市萬華區青年路144號1樓,1,970729,1080717,25.0216038,121.5024208
22555003,統一超商股份有限公司,28437588,台北市第六六四分公司,臺北市信義區信義路5段150巷401弄36號1樓,3,970729,       ,25.0244727,121.5702769
22555003,統一超商股份有限公司,28438030,台北市第六六六分公司,臺北市中山區一江街11、13號1樓,1,970806,1080717,25.0511145,121.5316266
22555003,統一超商股份有限公司,28438377,台北市第六六五分公司,臺北市中正區信陽街2-1號1樓,3,970814,1080717,25.0445865,121.5167517
22555003,統一超商股份有限公司,28438735,台北市第六六二分公司,臺北市中正區福州街11-3、11-4號1樓,3,970827,       ,25.0296542,121.5197515
22555003,統一超商股份有限公司,28438783,台北市第六六八分公司,臺北市士林區華岡路47巷1號1樓,3,970828,       ,25.1376196,121.5415051
22555003,統一超商股份有限公司,28438876,台北市第六六七分公司,臺北市文山區木新路3段327號1樓,3,970901,1080718,24.9804372,121.556371
22555003,統一超商股份有限公司,28970365,台北市第六六九分公司,臺北市北投區裕民里17鄰懷德街85號1樓,1,971009,1080717,25.1140784,121.5196496
22555003,統一超商股份有限公司,28970864,台北市第六七０分公司,臺北市士林區永平里延平北路6段202、204號1樓,3,971024,       ,25.0896086,121.5051692
22555003,統一超商股份有限公司,28970956,台北市第六七一分公司,臺北市北投區尊賢街247、247-1號1樓,1,971028,1021230,25.1174071,121.5069113
22555003,統一超商股份有限公司,28971744,台北市第六七三分公司,臺北市中山區松江路101號1樓,1,971117,1080717,25.0511497,121.5332726
22555003,統一超商股份有限公司,28972032,台北市第六七二分公司,臺北市大安區仁愛路4段151巷27號1樓,3,971124,       ,25.0397235,121.5518427
22555003,統一超商股份有限公司,28973089,台北市第六七四分公司,臺北市內湖區康寧路3段63、65、67號1樓,1,971219,1080717,25.0723071,121.6084634
22555003,統一超商股份有限公司,28973314,台北市第六七五分公司,臺北市內湖區港富里文德路99號1樓,1,971225,1080717,25.0787025,121.5833287
22555003,統一超商股份有限公司,28975093,台北市第六七七分公司,臺北市內湖區文德路6號1樓,3,980212,1080717,25.0784363,121.5788823
22555003,統一超商股份有限公司,28975333,台北市第六七六分公司,臺北市中山區德惠街15號1樓,1,980218,1080717,25.0667553,121.5259895
22555003,統一超商股份有限公司,28975707,台北市第六七八分公司,臺北市士林區忠誠路2段168號1樓,3,980226,       ,25.1156355,121.5331457
22555003,統一超商股份有限公司,28976121,台北市第六七九分公司,臺北市萬華區寶興街41號1樓,3,980313,       ,25.0274705,121.4933506
22555003,統一超商股份有限公司,28976706,台北市第六八○分公司,臺北市大同區民生西路214、216號1樓,1,980331,1080717,25.0569031,121.5149912
22555003,統一超商股份有限公司,28977579,台北市第六八一分公司,臺北市中正區博愛路97號1樓,1,980422,1080717,25.0430652,121.5116173
22555003,統一超商股份有限公司,28978303,台北市第六八二分公司,臺北市大安區金山南路2段18號1樓,1,980515,1080717,25.033171,121.52659
22555003,統一超商股份有限公司,28979387,台北市第六八四分公司,臺北市內湖區內湖路1段669號1樓,1,980603,1080717,25.0823089,121.5683655
22555003,統一超商股份有限公司,28980096,台北市第六八三分公司,臺北市士林區中山北路7段156號1樓,1,980617,1080717,25.1238891,121.5326599
22555003,統一超商股份有限公司,28981623,台北市第六八五分公司,臺北市內湖區東湖路119巷49弄2號1樓,1,980723,1080717,25.0698693,121.6171412
22555003,統一超商股份有限公司,28982405,台北市第六八六分公司,臺北市中正區思源街16號1樓,1,980817,1121128,25.0141707,121.5304492
22555003,統一超商股份有限公司,28982587,台北市第六八七分公司,臺北市信義區松仁路91-1號1樓,1,980820,1080717,25.0371056,121.5692385
22555003,統一超商股份有限公司,28983777,台北市第六八八分公司,臺北市松山區吉祥里南京東路5段66巷3弄1號1樓,1,980916,1080717,25.0518277,121.5574266
22555003,統一超商股份有限公司,28986057,台北市第六八九分公司,臺北市中山區長安東路2段178、178號之1一樓,1,981103,1080717,25.049564,121.521914
22555003,統一超商股份有限公司,28989174,台北市第六九一分公司,臺北市大同區民權西路157-1號1樓,1,981224,1080717,25.0631603,121.5162926
22555003,統一超商股份有限公司,28989245,台北市第六九○分公司,臺北市萬華區武昌街2段57號1樓,1,981224,1080717,25.0448066,121.507193
22555003,統一超商股份有限公司,28991137,台北市第六九二分公司,臺北市內湖區瑞光路76巷59號1樓,1,990208,1080717,25.0702631,121.5803676
22555003,統一超商股份有限公司,28991848,台北市第六九四分公司,臺北市中正區中華路1段41號1樓,1,990303,1080717,25.0474822,121.5101649
22555003,統一超商股份有限公司,28991875,台北市第六九三分公司,臺北市中山區建國北路2段151巷8號1樓,1,990305,1080717,25.0616652,121.5385325
22555003,統一超商股份有限公司,28991896,台北市第六九五分公司,臺北市南港區南港里南港路1段167號1樓,1,990304,1080717,25.0530895,121.6069541
22555003,統一超商股份有限公司,28993331,台北市第六九六分公司,臺北市南港區三重路19、19-1號1樓,1,990331,1080717,25.0566654,121.613327
22555003,統一超商股份有限公司,28993959,台北市第六九七分公司,臺北市文山區羅斯福路5段249號1樓,1,990415,1121128,25.0015303,121.539676
22555003,統一超商股份有限公司,28995345,台北市第六九八分公司,臺北市文山區辛亥路4段132號1樓,1,990511,1121128,25.0044851,121.5566721
22555003,統一超商股份有限公司,28995485,台北市第六九九分公司,臺北市中山區南京西路12巷9號1樓,1,990514,1080717,25.0518272,121.521481
22555003,統一超商股份有限公司,28996689,台北市第七○一分公司,臺北市松山區南京東路5段104號1樓,3,990610,       ,25.0518277,121.5574266
22555003,統一超商股份有限公司,28996739,台北市第七○○分公司,臺北市松山區吉祥村光復北路11巷44號1樓,1,990610,1080717,25.0495489,121.5597008
22555003,統一超商股份有限公司,28998125,台北市第七○二分公司,臺北市萬華區漢中街185、187號1樓,1,990715,       ,25.0410895,121.5068896
22555003,統一超商股份有限公司,28998342,台北市第七○三分公司,臺北市中山區復興北路148號1樓,3,990722,       ,25.0524549,121.5438183
22555003,統一超商股份有限公司,29182129,台北市第七○四分公司,臺北市南港區三重路23號1樓,1,990915,       ,25.0592137,121.6139138
22555003,統一超商股份有限公司,29182161,台北市第七○五分公司,臺北市信義區忠孝東路5段451號1樓,3,990916,       ,25.0406521,121.5652968
22555003,統一超商股份有限公司,43003908,台北市第八六一分公司,臺北市內湖區陽光街349號1樓,1,1050419,       ,25.0730441,121.5775672
22555003,統一超商股份有限公司,43004955,台北市第八六０分公司,臺北市士林區德行東路6-2號1樓,1,1050420,       ,25.1063357,121.525346
22555003,統一超商股份有限公司,43056708,台北市第八六三分公司,臺北市內湖區東湖路120號1樓,3,1050503,       ,25.0680842,121.616216
22555003,統一超商股份有限公司,43062201,台北市第八六二分公司,臺北市大同區南京西路296、298號1樓,3,1050504,       ,25.0538454,121.513754
22555003,統一超商股份有限公司,43141803,台北市第八六四分公司,臺北市大安區金華街140號1樓,1,1050527,       ,25.0298127,121.5283416
22555003,統一超商股份有限公司,51002608,台北市第八六九分公司,臺北市大安區敦化南路1段247巷12號1樓,1,1050830,       ,25.0389771,121.549271
22555003,統一超商股份有限公司,51007625,台北市第八七二分公司,臺北市大安區信義路4段294巷7號1樓,1,1050830,       ,25.0326002,121.5543977
22555003,統一超商股份有限公司,51007717,台北市第八七０分公司,臺北市中山區南京東路2段11號1樓,1,1050830,       ,25.051898,121.5281835
22555003,統一超商股份有限公司,51008363,台北市第八六八分公司,臺北市南港區忠孝東路7段359號1樓,1,1050831,       ,25.0457681,121.5828226
22555003,統一超商股份有限公司,51010121,台北市第八七一分公司,臺北市北投區石牌路2段179號1樓,1,1050906,       ,25.1186185,121.5181633
22555003,統一超商股份有限公司,51015569,台北市第八七四分公司,臺北市大安區基隆路4段43號1樓,3,1050929,       ,25.0128656,121.5426647
22555003,統一超商股份有限公司,51075209,台北市第八七三分公司,臺北市信義區松山路11號1樓,3,1051004,       ,25.0493066,121.5791866
22555003,統一超商股份有限公司,51076283,台北市第八七五分公司,臺北市萬華區萬大路486巷61、63、65號1樓,1,1051005,1100525,25.0204722,121.4957809
22555003,統一超商股份有限公司,51084431,台北市第八七八分公司,臺北市文山區景文街77號1樓,3,1051020,       ,24.9912784,121.5414282
22555003,統一超商股份有限公司,51085234,台北市第八七六分公司,臺北市松山區南京東路5段16號1樓,1,1051021,       ,25.0518277,121.5574266
22555003,統一超商股份有限公司,51085396,台北市第八七七分公司,臺北市北投區西安街2段345號1樓,1,1051024,       ,25.1207319,121.5053594
22555003,統一超商股份有限公司,51104801,台北市第八七九分公司,臺北市中山區樂群三路218號1樓,3,1051024,       ,25.082498,121.5577912
22555003,統一超商股份有限公司,51183501,台北市第八八０分公司,臺北市中山區中山北路2段77巷3、5號1樓,3,1051124,       ,25.0573442,121.5249168
22555003,統一超商股份有限公司,51235178,台北市第八八一分公司,臺北市士林區基河路368、370號1樓,1,1051214,       ,25.0947958,121.5184332
22555003,統一超商股份有限公司,51252507,台北市第八八二分公司,臺北市士林區後港街210號1樓,1,1051222,       ,25.0883893,121.5205885
22555003,統一超商股份有限公司,51298406,台北市第八八三分公司,臺北市松山區南京東路4段52巷1號1樓,3,1060110,       ,25.0514166,121.5535038
22555003,統一超商股份有限公司,51317831,台北市第九四六分公司,臺北市內湖區港墘路46、48號1樓,1,1060202,       ,25.0821075,121.5781093
22555003,統一超商股份有限公司,51328078,台北市第九四七分公司,臺北市大安區信義路2段198巷6號1樓、B1樓,1,1060323,       ,25.0330213,121.5303413
22555003,統一超商股份有限公司,51365805,台北市第八八四分公司,臺北市大同區華陰街91號1樓,1,1060501,       ,25.0498155,121.517573
22555003,統一超商股份有限公司,51442535,台北市第八八五分公司,臺北市大安區安東街50之2、50之3、50之4號1樓,1,1060613,       ,25.0427747,121.5425291
22555003,統一超商股份有限公司,51443345,台北市第八八六分公司,臺北市松山區敦化北路340之10號1樓,1,1060616,       ,25.0633817,121.5499876
22555003,統一超商股份有限公司,51443540,台北市第八八七分公司,臺北市大安區永康街2巷12號1樓,1,1060620,       ,25.0331408,121.5292143
22555003,統一超商股份有限公司,51450817,台北市第八八八分公司,臺北市北投區石牌路2段348巷1號、3號1樓,1,1060726,       ,25.1230087,121.5250147
22555003,統一超商股份有限公司,51450990,台北市第八八九分公司,臺北市萬華區西寧南路141號1樓,1,1060726,       ,25.044045,121.50644
22555003,統一超商股份有限公司,51469604,台北市第九０一分公司,臺北市文山區木柵路4段117、119號1樓,1,1060808,1121128,24.982055,121.5618619
22555003,統一超商股份有限公司,51512200,台北市第八九０分公司,臺北市士林區士東路266巷5弄18、20號1樓,1,1060831,       ,25.1124612,121.5375692
22555003,統一超商股份有限公司,51527153,台北市第八九二分公司,臺北市士林區忠誠路2段50巷12號,3,1060915,1090623,25.1109146,121.5295064
22555003,統一超商股份有限公司,51527554,台北市第八九一分公司,臺北市北投區光明路132-2號1樓,1,1060918,       ,25.1336072,121.5021488
22555003,統一超商股份有限公司,51528195,台北市第八九三分公司,臺北市松山區南京東路4段133巷6弄1號1樓,3,1060927,       ,25.0513931,121.5546859
22555003,統一超商股份有限公司,51529737,台北市第八九四分公司,臺北市內湖區堤頂大道2段411號1樓,1,1060928,       ,25.0807135,121.563224
22555003,統一超商股份有限公司,51532000,台北市第九O二分公司,臺北市大安區羅斯福路三段193號1樓,1,1061002,1121128,25.02106,121.528146
22555003,統一超商股份有限公司,51567703,台北市第八九五分公司,臺北市中山區中山北路2段39巷8號1樓,1,1061106,       ,25.0539196,121.5235794
22555003,統一超商股份有限公司,51568766,台北市第八九六分公司,臺北市內湖區基湖路35巷13號1樓,1,1061114,       ,25.0797879,121.5657084
22555003,統一超商股份有限公司,51590900,台北市第八九七分公司,臺北市中山區松江路418及420號1樓,3,1061207,       ,25.0645542,121.5329761
22555003,統一超商股份有限公司,51605707,台北市第八九八分公司,臺北市大同區延平北路3段19-5及21號1樓,1,1061212,       ,25.064078,121.5112699
22555003,統一超商股份有限公司,51619147,台北市第八九九分公司,臺北市松山區慶城街1號1樓,1,1061225,       ,25.0528029,121.5445811
22555003,統一超商股份有限公司,51624177,台北市第九００分公司,臺北市信義區福德街308號及310巷1號1樓,1,1070112,       ,25.0393735,121.5874323
22555003,統一超商股份有限公司,51627961,台北市第九一六分公司,臺北市信義區忠孝東路5段68號24樓,1,1070126,       ,25.0406521,121.5652968
22555003,統一超商股份有限公司,51630706,台北市第九一七分公司,臺北市大安區復興南路1段107巷5弄1號1樓,1,1070207,       ,25.034036,121.544113
22555003,統一超商股份有限公司,51668104,台北市第九一八分公司,臺北市中山區南京東路2段144號1樓,1,1070307,       ,25.051898,121.5281835
22555003,統一超商股份有限公司,51701737,台北市第九一九分公司,臺北市中正區忠孝西路1段49號地下1樓,1,1070326,       ,25.0631951,121.5151076
22555003,統一超商股份有限公司,51707872,台北市第九二０分公司,臺北市中山區林森北路101號1樓,1,1070416,       ,25.0501578,121.5250174
22555003,統一超商股份有限公司,51713712,台北市第九二一分公司,臺北市中山區松江路237號1樓,1,1070507,       ,25.059029,121.5334728
22555003,統一超商股份有限公司,51716302,台北市第九二二分公司,臺北市松山區南京東路四段75之2號1樓,1,1070508,       ,25.0518493,121.5535858
22555003,統一超商股份有限公司,51722509,台北市第九二三分公司,臺北市中山區敬業一路130號1樓,1,1070510,       ,25.0835916,121.5525217
22555003,統一超商股份有限公司,51740909,台北市第九二四分公司,臺北市中正區和平西路2段152、152-1、154、154-1號 1樓,1,1070521,       ,25.0330047,121.5055749
22555003,統一超商股份有限公司,51749107,台北市第九二五分公司,臺北市萬華區武昌街2段122-1號1、2樓,1,1070523,       ,25.0453157,121.5039555
22555003,統一超商股份有限公司,51798303,台北市第九二六分公司,臺北市內湖區安康路28號1樓,1,1070612,       ,25.0623914,121.5938774
22555003,統一超商股份有限公司,51808386,台北市第九二七分公司,臺北市中山區中山北路2段56號1樓,1,1070706,       ,25.0565009,121.5225186
22555003,統一超商股份有限公司,51808885,台北市第九二八分公司,臺北市大安區忠孝東路4段181巷40弄22號1樓,1,1070710,       ,25.0441342,121.5507594
22555003,統一超商股份有限公司,51824409,台北市第九二九分公司,臺北市大同區民生西路84號1樓,1,1070720,       ,25.0574816,121.5201976
22555003,統一超商股份有限公司,51875292,台北市第九三０分公司,臺北市中正區臨沂街27巷10號1樓,1,1070813,       ,25.0411521,121.5309418
22555003,統一超商股份有限公司,51901502,台北市第九五一分公司,臺北市大安區和平東路2段197、199號1樓,1,1080211,       ,25.0267596,121.5229719
22555003,統一超商股份有限公司,51910811,台北市第九五二分公司,臺北市士林區至誠路2段82號1樓,1,1080213,       ,25.1016023,121.5277645
22555003,統一超商股份有限公司,51911375,台北市第九五三分公司,臺北市信義區虎林街151、153號1樓,1,1080213,       ,25.0395549,121.5767071
22555003,統一超商股份有限公司,51911488,台北市第九五０分公司,臺北市內湖區民權東路六段180巷6號1樓,1,1080119,       ,25.0682977,121.5922751
22555003,統一超商股份有限公司,51920901,台北市第九四八分公司,臺北市中正區臨沂街1號1樓,1,1080119,       ,25.0347651,121.528024
22555003,統一超商股份有限公司,51934594,台北市九四九分公司,臺北市中正區南昌路一段135號1樓,1,1080119,       ,25.0296645,121.5184999
22555003,統一超商股份有限公司,53001458,台北市第七○六分公司,臺北市北投區中央北路3段55、57號1樓,1,991020,       ,25.1378357,121.4850989
22555003,統一超商股份有限公司,53002105,台北市第七○七分公司,臺北市中山區明水路636號1樓；樂群三路1號1樓,1,991103,       ,25.082999,121.551337
22555003,統一超商股份有限公司,53002914,台北市第七０八分公司,臺北市松山區民權東路五段15-1、17號1樓,3,991119,       ,25.0633334,121.5656224
22555003,統一超商股份有限公司,53004315,台北市第四十八分公司,臺北市大安區黎孝里安居街33號1樓,1,991217,       ,25.0204553,121.5544304
22555003,統一超商股份有限公司,53004379,台北市第四十分公司,臺北市北投區公館路165號1樓、165-1號B1,1,991220,       ,25.1290571,121.5066342
22555003,統一超商股份有限公司,53004547,台北市第一四五分公司,臺北市北投區立德路125號1樓,1,991222,1000104,25.1283213,121.4719334
22555003,統一超商股份有限公司,53005659,台北市第三二二分公司,臺北市南港區向陽路166號1樓,1,1000110,       ,25.0557937,121.5943315
22555003,統一超商股份有限公司,53006340,台北市第三九七分公司,臺北市中正區開封街1段40、42號1樓,1,1000131,       ,25.0460573,121.5146126
22555003,統一超商股份有限公司,53008699,台北市第四分公司,臺北市信義區基隆路一段178、180號1樓,1,1000328,       ,25.0423937,121.5649648
22555003,統一超商股份有限公司,53009986,台北市第七十分公司,臺北市松山區復興北路313巷25號1樓,1,1000418,       ,25.0590508,121.5462594
22555003,統一超商股份有限公司,53009992,台北市第六十七分公司,臺北市士林區前港里後港街98之1、98之2號1樓,1,1000418,       ,25.085714,121.521523
22555003,統一超商股份有限公司,53010040,台北市第十一分公司,臺北市大安區信義路4段74號1樓,3,1000419,       ,25.033727,121.544338
22555003,統一超商股份有限公司,53011147,台北市第一一五分公司,臺北市大安區四維路170巷8號1樓,1,1000511,       ,25.0281146,121.5476377
22555003,統一超商股份有限公司,53011688,台北市第一三三分公司,臺北市大同區迪化街1段32巷2號1樓,3,1000523,       ,25.0627243,121.5113064
22555003,統一超商股份有限公司,53011771,台北市第五十八分公司,臺北市北投區溫泉路73巷5號地下2樓之1,1,1000524,       ,25.1357945,121.5057137
22555003,統一超商股份有限公司,53012167,台北市第二二九分公司,臺北市中正區紹興北街37號1樓,1,1000530,       ,25.0454739,121.5255427
22555003,統一超商股份有限公司,53012201,台北市第二０六分公司,臺北市松山區南京東路5段315號1樓,3,1000530,       ,25.0518277,121.5574266
22555003,統一超商股份有限公司,53012217,台北市第一五五分公司,臺北市中山區林森北路380號之1  1樓,3,1000530,       ,25.0583986,121.5253687
22555003,統一超商股份有限公司,53014334,台北市第二九三分公司,臺北市松山區八德路3段20-2號1樓,1,1000713,1000726,25.0480002,121.551044
22555003,統一超商股份有限公司,53014355,台北市第二九一分公司,臺北市內湖區行善路64號1樓,3,1000713,       ,25.0570124,121.5761882
22555003,統一超商股份有限公司,53014539,台北市第二七三分公司,臺北市內湖區民權東路6段296巷3號1樓,3,1000713,       ,25.0725973,121.6053152
22555003,統一超商股份有限公司,53015283,台北市第三二九分公司,臺北市文山區新光路二段30號1樓,3,1000726,       ,24.9980129,121.5827522
22555003,統一超商股份有限公司,53016797,台北市第二四四分公司,臺北市信義區和平東路3段461、461-1號1樓,1,1000825,       ,25.0187611,121.5563789
22555003,統一超商股份有限公司,53017281,台北市第五五六分公司,臺北市松山區民生東路3段130巷5弄14號1樓,3,1000906,       ,25.0575733,121.5398306
22555003,統一超商股份有限公司,53017331,台北市第五一八分公司,臺北市松山區敦化北路340-9號1、2樓,3,1000907,       ,25.0641204,121.5529892
22555003,統一超商股份有限公司,53017698,台北市第四一九分公司,臺北市內湖區清白里金湖路49號1樓,3,1000914,       ,25.0821935,121.596662
22555003,統一超商股份有限公司,53017901,台北市第五一四分公司,臺北市中正區文盛里羅斯福路3段316巷12號1樓,3,1000920,       ,25.0155915,121.5323588
22555003,統一超商股份有限公司,53017938,台北市第四五九分公司,臺北市內湖區成功路4段359號1樓,1,1000920,       ,25.0844631,121.6000791
22555003,統一超商股份有限公司,53019823,台北市第四五三分公司,臺北市士林區光華路26巷10號1樓,1,1001101,       ,25.1373124,121.5416346
22555003,統一超商股份有限公司,53022215,台北市第四七０分公司,臺北市大安區敦化南路2段238號1樓,1,1001214,       ,25.0210886,121.5482908
22555003,統一超商股份有限公司,53023994,台北市第八0一分公司,臺北市中山區松江路295、295-1號1樓,3,1010118,       ,25.0609939,121.5333736
22555003,統一超商股份有限公司,53024001,台北市第八0二分公司,臺北市中山區長安東路1段75號1樓,1,1010118,       ,25.049818,121.522081
22555003,統一超商股份有限公司,53025466,台北市第八0三分公司,臺北市內湖區環山路2段81、83號1樓,3,1010206,       ,25.0847292,121.5748886
22555003,統一超商股份有限公司,53025775,台北市第八0五分公司,臺北市中山區中山北路2段11巷1、3號1樓,3,1010215,       ,25.0529091,121.5232915
22555003,統一超商股份有限公司,53025780,台北市第八０四分公司,臺北市中山區建國北路89、91號1樓,3,1010215,       ,25.0586141,121.5374427
22555003,統一超商股份有限公司,53026319,台北市第八０七分公司,臺北市北投區立德路15號1樓,3,1010224,       ,25.124838,121.4711336
22555003,統一超商股份有限公司,53026508,台北市第八０八分公司,臺北市信義區基隆路1段398號1樓,1,1010301,       ,25.0419415,121.5653136
22555003,統一超商股份有限公司,53026541,台北市第八０六分公司,臺北市信義區福德街159、161號1樓,1,1010302,       ,25.0376866,121.5833506
22555003,統一超商股份有限公司,53027302,台北市第八０九分公司,臺北市南港區鴻福里中坡南路47號1樓,1,1010314,       ,25.0429784,121.5836228
22555003,統一超商股份有限公司,53027339,台北市第八一０分公司,臺北市信義區基隆路2段155號1樓,1,1010314,       ,25.0256547,121.5545674
22555003,統一超商股份有限公司,53027345,台北市第八一一分公司,臺北市內湖區內湖路1段285巷65弄3、5號1樓,1,1010314,       ,25.0844614,121.5671279
22555003,統一超商股份有限公司,53027513,台北市第八一二分公司,臺北市中正區辛市里忠孝東路2段100號1樓,1,1010320,       ,25.043762,121.5268527
22555003,統一超商股份有限公司,53027534,台北市第八一三分公司,臺北市大同區至聖里酒泉街25、27號1樓,1,1010320,       ,25.0707316,121.5193801
22555003,統一超商股份有限公司,53028034,台北市第八一四分公司,臺北市萬華區頂碩里莒光路216號、萬大路57號1樓,1,1010327,       ,25.0313327,121.5008524
22555003,統一超商股份有限公司,53028724,台北市第八一五分公司,臺北市中山區江山里建國北路2段127號1樓,1,1010411,       ,25.0598958,121.5373966
22555003,統一超商股份有限公司,53649857,台北市第八一六分公司,臺北市大安區敦化南路2段182號1樓,3,1010501,       ,25.0235434,121.5482899
22555003,統一超商股份有限公司,53650122,台北市第八一七分公司,臺北市士林區德華里文林路669號1樓,1,1010508,       ,25.1008744,121.5220909
22555003,統一超商股份有限公司,53650143,台北市第八一八分公司,臺北市信義區逸仙路42巷25號1樓,1,1010508,       ,25.0404207,121.56315
22555003,統一超商股份有限公司,53650191,台北市第八一九分公司,臺北市萬華區昆明街197、199號1樓,1,1010508,       ,25.0391103,121.5041803
22555003,統一超商股份有限公司,53651229,台北市第八二0分公司,臺北市大同區延平北路2段232、234號1樓、涼州街72巷11號1樓,3,1010530,       ,25.0597925,121.5110706
22555003,統一超商股份有限公司,53651831,台北市第八二二分公司,臺北市士林區基河路132號1樓,1,1010613,       ,25.0889886,121.5224072
22555003,統一超商股份有限公司,53651852,台北市第八二一分公司,臺北市大安區敦化南路2段331巷14號1樓,1,1010613,       ,25.0226091,121.549907
22555003,統一超商股份有限公司,53651868,台北市第八二三分公司,臺北市大安區敦化南路2段265巷6號1樓,1,1010613,       ,25.0253522,121.5495271
22555003,統一超商股份有限公司,53652058,台北市第八二四分公司,臺北市文山區秀明路2段8、10號1樓,1,1010619,       ,24.9915905,121.5741433
22555003,統一超商股份有限公司,53652120,台北市第八二五分公司,臺北市信義區基隆路1段333號地下三樓,1,1010620,       ,25.0419415,121.5653136
22555003,統一超商股份有限公司,53652466,台北市第八二六分公司,臺北市內湖區內湖路3段61、63號1樓、59巷1號1樓,1,1010627,       ,25.0860988,121.5919349
22555003,統一超商股份有限公司,53653253,台北市第八二七分公司,臺北市內湖區民權東路6段180巷15、17、19號1樓,1,1010711,1130827,25.0688364,121.5928053
22555003,統一超商股份有限公司,53654020,台北市第八二八分公司,臺北市士林區延平路6段122、124號1樓,1,1010724,       ,25.0950492,121.5246077
22555003,統一超商股份有限公司,53654302,台北市第八三一分公司,臺北市大安區臥龍街252、252-1號1樓,1,1010731,       ,25.0183367,121.5571649
22555003,統一超商股份有限公司,53654339,台北市第八二九分公司,臺北市大安區羅斯福路3段245號1樓,1,1010731,       ,25.0193415,121.5299801
22555003,統一超商股份有限公司,53654372,台北市第八三０分公司,臺北市中山區民權東路2段96、98號1樓,1,1010731,       ,25.0624357,121.5279803
22555003,統一超商股份有限公司,53655338,台北市第八三三分公司,臺北市南港區玉成街83號1樓,3,1010815,       ,25.048129,121.5819876
22555003,統一超商股份有限公司,53655409,台北市第八三二分公司,臺北市內湖區金龍路215號1樓,3,1010815,       ,25.0881556,121.5871819
22555003,統一超商股份有限公司,53655822,台北市第八三四分公司,臺北市南港區玉成街150號1樓,1,1010822,       ,25.0450202,121.5837264
22555003,統一超商股份有限公司,53656152,台北市第八三七分公司,臺北市大安區仁愛路3段74號1樓,3,1010829,       ,25.0375405,121.5388242
22555003,統一超商股份有限公司,53656272,台北市第八三六分公司,臺北市中山區林森北路108號1樓,1,1010831,       ,25.0509311,121.5249077
22555003,統一超商股份有限公司,53656287,台北市第八三八分公司,臺北市中正區廈門街99巷19-2號1樓,1,1010831,       ,25.0239768,121.518814
22555003,統一超商股份有限公司,53656694,台北市第八三九分公司,臺北市中正區寧波東街17號1樓,1,1010906,       ,25.0331782,121.5202865
22555003,統一超商股份有限公司,53657357,台北市第八四０分公司,臺北市萬華區長沙街2段87號1樓,1,1010919,       ,25.0405813,121.5048363
22555003,統一超商股份有限公司,53657589,台北市第八四一分公司,臺北市信義區東興路67號1樓,1,1010920,       ,25.0468281,121.5666818
22555003,統一超商股份有限公司,53658243,台北市第八四四分公司,臺北市中正區漢口街一段82號1樓,1,1011003,       ,25.04508,121.512207
22555003,統一超商股份有限公司,53658285,台北市第八四二分公司,臺北市大安區光復南路240巷25號1樓,1,1011003,       ,25.0406369,121.5563359
22555003,統一超商股份有限公司,53658383,台北市第八四三分公司,臺北市大同區重慶北路3段47、49號1樓,1,1011003,       ,25.0656462,121.513895
22555003,統一超商股份有限公司,53658996,台北市第八四六分公司,臺北市大同區南京西路233巷17號1樓,3,1011016,1080325,25.0543079,121.510539
22555003,統一超商股份有限公司,53659088,台北市第八三五分公司,臺北市大安區敦化南路2段99號1樓,1,1011017,       ,25.0293442,121.5492377
22555003,統一超商股份有限公司,53659171,台北市第八四五分公司,臺北市北投區大興街44、46號1樓,1,1011017,       ,25.1300473,121.4993719
22555003,統一超商股份有限公司,53659524,台北市第八四七分公司,臺北市中正區武昌街1段45號1樓,3,1011023,       ,25.0442178,121.508758
22555003,統一超商股份有限公司,53660276,台北市第八四九分公司,臺北市信義區崇德街104、106號1樓,1,1011107,       ,25.023995,121.555603
22555003,統一超商股份有限公司,53660297,台北市第八五一分公司,臺北市內湖區五分街33、35號1樓,1,1011107,       ,25.067643,121.6133853
22555003,統一超商股份有限公司,53660326,台北市第八五０分公司,臺北市大安區濟南路3段12號1樓,1,1011107,       ,25.0401064,121.5338789
22555003,統一超商股份有限公司,53660374,台北市第八四八分公司,臺北市大安區忠孝東路4段205巷7弄5號1樓,3,1011108,       ,25.0420032,121.5334554
22555003,統一超商股份有限公司,53660732,台北市第八五二分公司,臺北市文山區羅斯福路五段216號1樓,1,1011113,       ,25.0023084,121.5385901
22555003,統一超商股份有限公司,53660753,台北市第八五三分公司,臺北市大同區承德路三段55、57號1樓,1,1011114,       ,25.0652109,121.5185663
22555003,統一超商股份有限公司,53660780,台北市第八五五分公司,臺北市內湖區內湖路二段407、409、411號1樓,1,1011114,1071227,25.0845356,121.5934585
22555003,統一超商股份有限公司,53660830,台北市第八五四分公司,臺北市中正區忠孝西路一段49號,3,1011114,       ,25.0480972,121.518982
22555003,統一超商股份有限公司,53664060,台北市第七０九分公司,臺北市內湖區舊宗路2段123號1樓,3,1020114,       ,25.069549,121.57504
22555003,統一超商股份有限公司,53664131,台北市第七一一分公司,臺北市內湖區瑞光路406號1樓,1,1020115,       ,25.0780542,121.5705743
22555003,統一超商股份有限公司,53664955,台北市第七一二分公司,臺北市中山區建國北路2段13號1樓,1,1020129,       ,25.0575334,121.5375792
22555003,統一超商股份有限公司,53665309,台北市第七一０分公司,臺北市中山區中山北路2段44巷2號1樓,1,1020205,       ,25.0549583,121.5214852
22555003,統一超商股份有限公司,53666010,台北市第七一三分公司,臺北市信義區永吉路30巷168弄1號1樓,1,1020226,       ,25.0420853,121.5675411
22555003,統一超商股份有限公司,53666047,台北市第七一四分公司,臺北市松山區南京東路5段15號1樓,3,1020226,       ,25.0518277,121.5574266
22555003,統一超商股份有限公司,53666406,台北市第七一五分公司,臺北市萬華區昆明街30-1、30-2號1樓,1,1020306,       ,25.047166,121.50594
22555003,統一超商股份有限公司,53667051,台北市第七一六分公司,臺北市中山區民生東路1段46、46-1號1樓,1,1020318,       ,25.0581536,121.5373948
22555003,統一超商股份有限公司,53667714,台北市第七一七分公司,臺北市中山區吉林路209、211號1樓,1,1020327,1090526,25.0602798,121.5303525
22555003,統一超商股份有限公司,53668137,台北市第七一八分公司,臺北市北投區振興街45號,3,1020402,       ,25.1161524,121.5223697
22555003,統一超商股份有限公司,53668729,台北市第七二０分公司,臺北市士林區中山北路6段18、20號1樓,1,1020412,       ,25.1039595,121.5267268
22555003,統一超商股份有限公司,53668805,台北市第七一九分公司,臺北市中正區信義路2段15號1樓,1,1020415,       ,25.0351796,121.5253363
22555003,統一超商股份有限公司,53670470,台北市第七二三分公司,臺北市文山區指南路2段64號1樓,3,1020509,       ,24.9870651,121.5779656
22555003,統一超商股份有限公司,53670555,台北市第七二二分公司,臺北市內湖區瑞光路188巷51號1樓,1,1020509,       ,25.0739576,121.5760209
22555003,統一超商股份有限公司,53670577,台北市第七二一分公司,臺北市大安區仁愛路4段122巷50號1樓,1,1020509,       ,25.0344921,121.5501522
22555003,統一超商股份有限公司,53670892,台北市第七二五分公司,臺北市士林區延平北路5段134號1樓,1,1020516,       ,25.0820408,121.5105456
22555003,統一超商股份有限公司,53671082,台北市第七二四分公司,臺北市大安區基隆路4段43號,3,1020517,       ,25.0128656,121.5426647
22555003,統一超商股份有限公司,53671251,台北市第七二六分公司,臺北市北投區知行路185號1樓,1,1020522,       ,25.1191019,121.4661672
22555003,統一超商股份有限公司,53671793,台北市第七二七分公司,臺北市士林區中正路639號1樓,1,1020528,       ,25.086116,121.5081611
22555003,統一超商股份有限公司,53672195,台北市第七二八分公司,臺北市大安區敦南街38號1樓,3,1020605,       ,25.0233683,121.5464401
22555003,統一超商股份有限公司,53674594,台北市第七二九分公司,臺北市士林區中正路301號1樓,3,1020716,       ,25.0947105,121.5237556
22555003,統一超商股份有限公司,53675952,台北市第七三一分公司,臺北市士林區克強路11、11-1號1樓,1,1020808,       ,25.1087184,121.5244791
22555003,統一超商股份有限公司,53676495,台北市第七三０分公司,臺北市松山區敦化北路100號1樓,1,1020816,       ,25.0525793,121.5478081
22555003,統一超商股份有限公司,53676636,台北市第七三三分公司,臺北市中山區龍江路356巷39、41號1樓,1,1020820,       ,25.0662453,121.5393193
22555003,統一超商股份有限公司,53677353,台北市第七三二分公司,臺北市萬華區成都路96號1樓、昆明街136巷1弄11號1樓,1,1020903,       ,25.042588,121.5044096
22555003,統一超商股份有限公司,53677403,台北市第七三四分公司,臺北市士林區劍潭路21號1樓,1,1020903,       ,25.0841588,121.5226377
22555003,統一超商股份有限公司,53677733,台北市第七三五分公司,臺北市中山區林森北路107巷15號1樓,1,1020911,       ,25.050343,121.5256595
22555003,統一超商股份有限公司,54369426,台北市第七三六分公司,臺北市南港區忠孝東路6段465號1樓,1,1021008,       ,25.0453509,121.5829816
22555003,統一超商股份有限公司,54370232,台北市第七三七分公司,臺北市中山區明水路397巷7弄25號1樓,3,1021024,       ,25.0781431,121.5494307
22555003,統一超商股份有限公司,54371513,台北市第七三九分公司,臺北市松山區延壽街99號1樓,1,1021113,       ,25.0571895,121.5662385
22555003,統一超商股份有限公司,54371648,台北市第七三八分公司,臺北市士林區天母東路88-1號1樓,1,1021114,       ,25.1179509,121.5358061
22555003,統一超商股份有限公司,54371942,台北市第七四０分公司,臺北市士林區大東路123、125號1樓,1,1021120,       ,25.091614,121.5254558
22555003,統一超商股份有限公司,54372415,台北市第七四一分公司,臺北市文山區羅斯福路5段21號1樓,1,1021127,       ,25.0078262,121.5385626
22555003,統一超商股份有限公司,54372843,台北市第七四二分公司,臺北市北投區致遠一路2段49、51號1樓,1,1021205,       ,25.1119838,121.5136073
22555003,統一超商股份有限公司,54373316,台北市第七四三分公司,臺北市士林區華岡路45-1號1樓,1,1021209,       ,25.137841,121.542118
22555003,統一超商股份有限公司,54374069,台北市第七四六分公司,臺北市中山區錦州街229號1樓,1,1021217,       ,25.0604284,121.5323472
22555003,統一超商股份有限公司,54374080,台北市第七四五分公司,臺北市信義區吳興街486、488號1樓,1,1021217,       ,25.0234357,121.5695044
22555003,統一超商股份有限公司,54374645,台北市第七四七分公司,臺北市士林區德行東路106、108號1樓,1,1021224,       ,25.1076765,121.5285797
22555003,統一超商股份有限公司,54374785,台北市第七四八分公司,臺北市內湖區洲子街102號1樓,1,1021226,       ,25.0799878,121.5706027
22555003,統一超商股份有限公司,54375882,台北市第七四九分公司,臺北市北投區立功街76號1樓,3,1030115,       ,25.1248912,121.4692866
22555003,統一超商股份有限公司,54378488,台北市第七五一分公司,臺北市北投區中和街314、316號1樓,1,1030310,       ,25.1409724,121.4999469
22555003,統一超商股份有限公司,54378712,台北市第七五０分公司,臺北市萬華區昆明街285-3、285-4號1樓,1,1030312,       ,25.0367394,121.5036917
22555003,統一超商股份有限公司,54378972,台北市第七五二分公司,臺北市松山區敦化北路199巷2弄9號1樓,3,1030317,       ,25.055473,121.5500424
22555003,統一超商股份有限公司,54379043,台北市第七五三分公司,臺北市內湖區瑞光路316巷56號1樓,1,1030318,       ,25.0759864,121.5730421
22555003,統一超商股份有限公司,54379613,台北市第七五四分公司,臺北市南港區研究院路2段94、96號1樓、98巷1號1樓,1,1030327,       ,25.0442338,121.6158275
22555003,統一超商股份有限公司,54382954,台北市第七五五分公司,臺北市內湖區金湖路405號1樓,1,1030523,       ,25.0733071,121.6043905
22555003,統一超商股份有限公司,54383193,台北市第七五六分公司,臺北市松山區民權東路3段160巷9號1樓,1,1030526,       ,25.0624386,121.5408718
22555003,統一超商股份有限公司,54383877,台北市第七五七分公司,臺北市中山區龍江路104號1樓,1,1030612,       ,25.0527115,121.5403309
22555003,統一超商股份有限公司,54384263,台北市第七五八分公司,臺北市中山區明水路581巷15號1樓,1,1030617,       ,25.0802208,121.5509434
22555003,統一超商股份有限公司,54384307,台北市第七五九分公司,臺北市南港區經貿二路168號4樓,1,1030617,       ,25.0585084,121.6159507
22555003,統一超商股份有限公司,54384947,台北市第七六二分公司,臺北市南港區研究院路三段72、74號1樓,1,1030624,       ,25.0346866,121.6140977
22555003,統一超商股份有限公司,54384952,台北市第七六０分公司,臺北市中山區興安街112號1樓,1,1030624,       ,25.0555478,121.5430506
22555003,統一超商股份有限公司,54385410,台北市第七六一分公司,臺北市萬華區西園路一段238號1、2樓,1,1030701,       ,25.0348411,121.4987759
22555003,統一超商股份有限公司,54386207,台北市第七六三分公司,臺北市內湖區環山路1段70號1樓,1,1030711,       ,25.0826644,121.5656931
22555003,統一超商股份有限公司,54386868,台北市第七六四分公司,臺北市中山區南京東路3段21號1樓,1,1030728,       ,25.0523713,121.5281453
22555003,統一超商股份有限公司,54387249,台北市第七六五分公司,臺北市士林區延平北路5段269、271號1樓,1,1030801,       ,25.085297,121.5095668
22555003,統一超商股份有限公司,54387395,台北市第七六六分公司,臺北市大安區仁愛路4段79號1樓,1,1030806,       ,25.0382291,121.5473972
22555003,統一超商股份有限公司,54387971,台北市第七六七分公司,臺北市中正區汀州路3段269號1樓,1,1030814,       ,25.0125702,121.5354337
22555003,統一超商股份有限公司,54388015,台北市第七六八分公司,臺北市萬華區成都路27巷1號1樓,3,1030818,       ,25.0427399,121.506911
22555003,統一超商股份有限公司,54388063,台北市第七六九分公司,臺北市大同區長安西路45-2、47號1樓,1,1030819,       ,25.0508215,121.5181158
22555003,統一超商股份有限公司,54388520,台北市第七七０分公司,臺北市文山區福興路22、24號1樓,3,1030826,       ,25.0028568,121.5513376
22555003,統一超商股份有限公司,54388752,台北市第七七一分公司,臺北市信義區虎林街222巷7、9號1樓,1,1030827,       ,25.0372605,121.5771958
22555003,統一超商股份有限公司,54388789,台北市第七七二分公司,臺北市大同區民族西路246、248號1樓,1,1030827,       ,25.0685072,121.5125196
22555003,統一超商股份有限公司,54389133,台北市第七七三分公司,臺北市萬華區興義街6、8號1樓,3,1030902,       ,25.0266816,121.4916665
22555003,統一超商股份有限公司,54389181,台北市第七七四分公司,臺北市大安區泰順街64號1樓,3,1030902,       ,25.0222083,121.5311866
22555003,統一超商股份有限公司,54390027,台北市第七七五分公司,臺北市大安區和平東路3段298、300號及和平東路3段308巷2弄9號,1,1030922,       ,25.02644,121.5332197
22555003,統一超商股份有限公司,54390309,台北市第七七六分公司,臺北市信義區忠孝東路5段470號1樓,1,1030926,       ,25.0406521,121.5652968
22555003,統一超商股份有限公司,54390722,台北市第七七七分公司,臺北市萬華區西藏路107、107-1號1樓,1,1031006,       ,25.0295544,121.5033734
22555003,統一超商股份有限公司,54394348,台北市第七七八分公司,臺北市南港區經貿二路186號2樓,1,1031209,       ,25.0588492,121.6149328
22555003,統一超商股份有限公司,54394353,台北市第七七九分公司,臺北市信義區松德路127號1樓,1,1031209,       ,25.0374042,121.5751881
22555003,統一超商股份有限公司,54394706,台北市第七八０分公司,臺北市士林區福華路126號1樓,1,1031212,       ,25.1026983,121.522938
22555003,統一超商股份有限公司,54395043,台北市第七八一分公司,臺北市信義區松高路12號B1樓,3,1031218,       ,25.0383005,121.566783
22555003,統一超商股份有限公司,54396417,台北市第七八二分公司,臺北市大同區南京西路68號1樓,3,1040113,       ,25.0528593,121.518562
22555003,統一超商股份有限公司,54397773,台北市第七八四分公司,臺北市萬華區寶興街43號、45號1樓,1,1040206,       ,25.027372,121.49347
22555003,統一超商股份有限公司,54398219,台北市第七八五分公司,臺北市士林區華齡街17巷2號、4號1樓,1,1040216,       ,25.0830704,121.5193531
22555003,統一超商股份有限公司,54399028,台北市第七八三分公司,臺北市中山區敬業三路11號1樓,3,1040318,       ,25.0837152,121.5560341
22555003,統一超商股份有限公司,54911498,台北市第九六一分公司,臺北市中山區復興北路348號1樓,1,1080425,       ,25.0600077,121.5438801
22555003,統一超商股份有限公司,54911624,台北市第九六二分公司,臺北市松山區復興北路15-6號1樓,1,1080510,       ,25.0486251,121.5442703
22555003,統一超商股份有限公司,54911862,台北市第九六三分公司,臺北市北投區裕民六路111號1、2樓、113號1樓,1,1080513,       ,25.1148896,121.5173468
22555003,統一超商股份有限公司,54912074,台北市第九六四分公司,臺北市內湖區安康路32巷24弄22號1樓,1,1080520,       ,25.0616239,121.5942248
22555003,統一超商股份有限公司,54912546,台北市第九０五分公司,臺北市文山區新光路1段10、12、14號1樓+B1,1,1080605,1121128,24.99317,121.5737415
22555003,統一超商股份有限公司,54912911,台北市第九六六分公司,臺北市內湖區洲子街70號1樓,1,1080618,       ,25.0793168,121.5719188
22555003,統一超商股份有限公司,54912953,台北市第九六五分公司,臺北市中正區南昌路1段67、69號1樓,1,1080618,       ,25.03194,121.5168
22555003,統一超商股份有限公司,54913313,台北市第九六七分公司,臺北市內湖區五分街62號1樓,1,1080702,       ,25.0671095,121.6159479
22555003,統一超商股份有限公司,54913524,台北市第九七０分公司,臺北市信義區松仁路246號、248號1樓,1,1080710,       ,25.0245445,121.569424
22555003,統一超商股份有限公司,54913539,台北市第九六九分公司,臺北市士林區大東路15-6號1樓、15-7號1樓,3,1080710,       ,25.0884358,121.5250071
22555003,統一超商股份有限公司,54913572,台北市第九七一分公司,臺北市大安區信義路3段65號1樓,1,1080711,       ,25.0337624,121.5367651
22555003,統一超商股份有限公司,54913587,台北市第九六八分公司,臺北市萬華區峨嵋街74號1樓,3,1080711,       ,25.04406,121.504319
22555003,統一超商股份有限公司,54913593,台北市第九七二分公司,臺北市中山區敬業三路11號1樓,1,1080711,       ,25.0837152,121.5560341
22555003,統一超商股份有限公司,54913876,台北市第九七三分公司,臺北市信義區忠孝東路5段71巷6號1樓,1,1080719,       ,25.0417974,121.5672434
22555003,統一超商股份有限公司,54914018,台北市第九七四分公司,臺北市士林區文林路126號1樓,1,1080723,       ,25.0884476,121.5264987
22555003,統一超商股份有限公司,54914039,台北市第九七五分公司,臺北市信義區忠孝東路4段559巷24號1樓,1,1080723,       ,25.0414432,121.5441092
22555003,統一超商股份有限公司,54914827,台北市第九０六分公司,臺北市文山區木柵路1段111號1樓,1,1080819,1121128,24.99168,121.5711331
22555003,統一超商股份有限公司,54915109,台北市第九七六分公司,臺北市萬華區中華路1段114巷2號1樓,3,1080828,       ,25.0474822,121.5101649
22555003,統一超商股份有限公司,54915234,台北市第九七八分公司,臺北市萬華區昆明街76-1號1樓,1,1080830,       ,25.0457008,121.5054794
22555003,統一超商股份有限公司,54915298,台北市第九七七分公司,臺北市北投區石牌路1段37號1樓,1,1080902,       ,25.1133685,121.510814
22555003,統一超商股份有限公司,54915403,台北市第九七九分公司,臺北市大同區華陰街65號1樓,1,1080904,       ,25.0495982,121.5184023
22555003,統一超商股份有限公司,54915608,台北市第九八０分公司,臺北市內湖區港華街46號1樓,1,1080909,       ,25.0830007,121.5746838
22555003,統一超商股份有限公司,54915712,台北市第九八一分公司,臺北市中山區吉林路97號、99號1樓,1,1080910,       ,25.0559192,121.5304802
22555003,統一超商股份有限公司,54915874,台北市第九八二分公司,臺北市中山區林森北路587號1樓,1,1080916,       ,25.0659919,121.5258328
22555003,統一超商股份有限公司,54916199,台北市第九八三分公司,臺北市信義區信義路6段21號、23號1樓,1,1080927,       ,25.0345253,121.5756301
22555003,統一超商股份有限公司,54916326,台北市第九Ｏ七分公司,臺北市中正區南昌路2段206號1樓,1,1081004,1121128,25.0240214,121.5243359
22555003,統一超商股份有限公司,54916424,台北市第九八四分公司,臺北市松山區八德路4段295號、297號1樓,1,1081005,       ,25.0492027,121.5663935
22555003,統一超商股份有限公司,54916515,台北市第九八五分公司,臺北市士林區文林路444號1樓,3,1081008,       ,25.0953107,121.5246736
22555003,統一超商股份有限公司,54916775,台北市第九八六分公司,臺北市大安區忠孝東路4段181巷7弄11-1號、11-2號1樓,1,1081015,       ,25.0420032,121.5334554
22555003,統一超商股份有限公司,54916992,台北市第九八七分公司,臺北市中正區紹興北街3號1樓、B1,1,1081018,       ,25.0447511,121.5254254
22555003,統一超商股份有限公司,54917248,台北市第九八八分公司,臺北市內湖區新湖一路95號1樓,1,1081023,       ,25.0585718,121.5762598
22555003,統一超商股份有限公司,54917508,台北市第九八九分公司,臺北市大安區和平東路2段38-1號、40號1樓,3,1081029,       ,25.0267596,121.5229719
22555003,統一超商股份有限公司,54917893,台北市第九０八分公司,臺北市大安區和平東路2段38-1號、40號1樓,1,1081106,1121128,25.0267596,121.5229719
22555003,統一超商股份有限公司,54917985,台北市第九九０分公司,臺北市內湖區康寧路3段189巷21弄26號1樓,1,1081108,       ,25.0713985,121.6123529
22555003,統一超商股份有限公司,54918817,台北市第九九一分公司,臺北市內湖區新湖二路369號、行善路468號1樓,1,1081125,1121128,25.0636077,121.5856415
22555003,統一超商股份有限公司,54919132,台北市第九九二分公司,臺北市信義區中坡北路１１號1樓,1,1081128,1121128,25.044374,121.581574
22555003,統一超商股份有限公司,54919323,台北市第九九三分公司,臺北市信義區信義路5段5號1樓,1,1081219,1121128,25.0332591,121.562324
22555003,統一超商股份有限公司,60724829,台北市第一二五０分公司,臺北市士林區前港街17號,1,1140430,       ,25.0848404,121.5223547
22555003,統一超商股份有限公司,60745227,台北市第一二四九分公司,臺北市大安區復興南路一段135巷7號1樓,1,1140331,       ,25.0427579,121.54471
22555003,統一超商股份有限公司,60745845,台北市第一二五一分公司,臺北市中正區愛國東路60號,1,1140416,       ,25.0337816,121.5189217
22555003,統一超商股份有限公司,70744617,台北市第四二八分公司,臺北市松山區八德路四段七六七七六九號一樓,1,880720,1121128,25.0541591,121.5638621
22555003,統一超商股份有限公司,70744623,台北市第四二九分公司,臺北市中正區林森南路12號1樓,1,880720,1121127,25.0427322,121.5224697
22555003,統一超商股份有限公司,70744905,台北市第四三０分公司,臺北市大安區忠孝東路四段一０一巷七號一樓,3,880722,       ,25.0388004,121.5531388
22555003,統一超商股份有限公司,70745475,台北市第四三一分公司,臺北市信義區基隆路2段131-3、131-4號1樓,1,880729,1121128,25.027971,121.556901
22555003,統一超商股份有限公司,70746116,台北市第四三二分公司,臺北市中正區林森南路51、53、55號1樓,1,880805,1121127,25.0402156,121.5222605
22555003,統一超商股份有限公司,70746122,台北市第四三三分公司,臺北市中山區松江路183、183之1號1樓,3,880805,1080717,25.0563979,121.5333247
22555003,統一超商股份有限公司,70746707,台北市第四二五分公司,臺北市士林區至善路二段三十四號,3,880812,       ,25.1028387,121.5532316
22555003,統一超商股份有限公司,70746713,台北市第四三四分公司,臺北市文山區指南路2段149號1樓,1,880812,1121128,24.9874598,121.5772646
22555003,統一超商股份有限公司,70747086,台北市第四三五分公司,臺北市中正區武昌街一段九號一樓,3,880817,900731,25.0441669,121.513528
22555003,統一超商股份有限公司,70747380,台北市第四三六分公司,臺北市大安區樂利路二九號二九之一號一樓,1,880909,1121128,25.024169,121.5483413
22555003,統一超商股份有限公司,70747396,台北市第四三七分公司,臺北市北投區中央北路一段一０八號一樓,1,880819,1121128,25.1347742,121.4995519
22555003,統一超商股份有限公司,70750835,台北市第四三八分公司,臺北市內湖區行善里行善路35、37號1樓,1,880930,1071123,25.0567861,121.576448
22555003,統一超商股份有限公司,70751497,台北市第四三九分公司,臺北市大安區信義路三段99號1樓,1,881006,1121127,25.0335765,121.538626
22555003,統一超商股份有限公司,70751503,台北市第四四０分公司,臺北市大同區太原路一五０號一樓,3,881006,930830,25.0531763,121.5160017
22555003,統一超商股份有限公司,70753946,台北市第四四一分公司,臺北市萬華區武昌街二段五號,3,881103,920923,25.0450837,121.5053899
22555003,統一超商股份有限公司,70754348,台北市第四四二分公司,臺北市大同區民生西路343、345號1樓,1,881108,1121127,25.0570298,121.5111386
22555003,統一超商股份有限公司,70754353,台北市第四四三分公司,臺北市中正區汀州路三段129號1樓,1,881108,1000713,25.0163545,121.5306578
22555003,統一超商股份有限公司,70756520,台北市第四四四分公司,臺北市松山區南京東路三段三三五巷五-三、五-四、五-九、五-十、,3,881129,       ,25.0541591,121.5638621
22555003,統一超商股份有限公司,70757078,台北市第四四五分公司,臺北市松山區市民大道四段一０五號一樓,1,881202,1121128,25.0447727,121.5507005
22555003,統一超商股份有限公司,70757859,台北市第四四六分公司,臺北市大安區光復南路三四六巷二十二號一樓,3,881209,920402,25.0388366,121.5576253
22555003,統一超商股份有限公司,70758323,台北市第四四七分公司,臺北市松山區新東街41之7號1樓,1,881213,991004,25.060185,121.5655993
22555003,統一超商股份有限公司,70759287,台北市第四四八分公司,臺北市中正區汀州路二段一一八號一樓,3,881220,930324,25.024804,121.5200177
22555003,統一超商股份有限公司,70759293,台北市第四四九分公司,臺北市信義區景新里莊敬路三二五巷四十三號一樓,1,881220,1121128,25.0307148,121.5613134
22555003,統一超商股份有限公司,70760989,台北市第四五０分公司,臺北市士林區延平北路六段八、十號一樓,3,890104,       ,25.0895523,121.5031076
22555003,統一超商股份有限公司,70761164,台北市第四五一分公司,臺北市士林區延平北路五段二二二號一樓,3,890105,       ,25.0826582,121.5102836
22555003,統一超商股份有限公司,70761381,台北市第四五二分公司,臺北市萬華區西園路一段一五三號地下一樓,1,890111,1121128,25.0371203,121.4994552
22555003,統一超商股份有限公司,70762163,台北市第四五三分公司,臺北市萬華區青年路一三八號一樓,3,890118,       ,25.0228968,121.5026855
22555003,統一超商股份有限公司,70763769,台北市第四五四分公司,臺北市北投區湖山路一段十四之一號一樓,3,890210,901204,25.1519437,121.5448566
22555003,統一超商股份有限公司,70764795,台北市第四五五分公司,臺北市中山區龍江路384巷1、3號1樓,1,890221,1001220,25.066902,121.540876
22555003,統一超商股份有限公司,70764970,台北市第四五六分公司,臺北市中山區建國北路一段一三六號一樓,3,890223,       ,25.0491345,121.5369658
22555003,統一超商股份有限公司,70765210,台北市第四五七分公司,臺北市中山區南京東路一段一三０之四號一樓,3,890229,920707,25.0521951,121.5253519
22555003,統一超商股份有限公司,70765226,台北市第四五八分公司,臺北市內湖區新明路四二七號一樓,1,890229,1121128,25.0566653,121.5837217
22555003,統一超商股份有限公司,70765231,台北市第四五九分公司,臺北市中山區南京東路二段二十三號一樓,3,890229,931007,25.0522472,121.5305805
22555003,統一超商股份有限公司,70765247,台北市第四六０分公司,臺北市南港區三重路二十三號一樓,3,890229,       ,25.0587008,121.6141787
22555003,統一超商股份有限公司,70765817,台北市第四六一分公司,臺北市士林區雨農路25號1樓,1,890306,1121127,25.0985279,121.5322614
22555003,統一超商股份有限公司,70766604,台北市第四六二分公司,臺北市內湖區瑞光路517號1樓,1,890314,1080717,25.079293,121.5692192
22555003,統一超商股份有限公司,70766610,台北市第四六三分公司,臺北市中正區仁愛路二段三十九、三十九之一號一樓,1,890314,1121128,25.0421407,121.5198716
22555003,統一超商股份有限公司,70767239,台北市第四六四分公司,臺北市內湖區文湖街83、85號1樓,1,890320,1000530,25.0866342,121.5642222
22555003,統一超商股份有限公司,70767532,台北市第四六五分公司,臺北市內湖區瑞光路七十六巷四十九號一樓,3,890322,       ,25.0760261,121.575429
22555003,統一超商股份有限公司,70767836,台北市第四六六分公司,臺北市大安區仁愛路四段四十八巷九號一樓,3,890327,900416,25.0376461,121.55097
22555003,統一超商股份有限公司,70767842,台北市第四六七分公司,臺北市大同區寧夏路71、73號1樓,1,890327,1000511,25.0585288,121.5152656
22555003,統一超商股份有限公司,70768862,台北市第四六八分公司,臺北市大安區永康街七號之一,3,890410,890511,25.0388004,121.5531388
22555003,統一超商股份有限公司,70769709,台北市第四七０分公司,臺北市中正區福州街一號一樓,3,890417,       ,25.0279623,121.517151
22555003,統一超商股份有限公司,70769715,台北市第四六九分公司,臺北市松山區南京東路四段56之1號1樓,3,890417,990415,25.0514446,121.5539312
22555003,統一超商股份有限公司,70771085,台北市第四七一分公司,臺北市中山區中山北路三段四十九號,3,890501,890515,25.0792018,121.5427093
22555003,統一超商股份有限公司,70771347,台北市第四七二分公司,臺北市中山區松江路一二三巷三號一樓,3,890504,910806,25.0583949,121.5332105
22555003,統一超商股份有限公司,70771682,台北市第四七三分公司,臺北市松山區八德路四段六七八號一樓,3,890508,930929,25.0493394,121.5688323
22555003,統一超商股份有限公司,70772747,台北市第四七四分公司,臺北市松山區民生東路四段一三０號一樓,3,890515,1121128,25.0581821,121.5517662
22555003,統一超商股份有限公司,70774560,台北市第四七五分公司,臺北市內湖區東湖里東湖路一一三巷八十八號,1,890602,1121128,25.0682644,121.6161065
22555003,統一超商股份有限公司,70775771,台北市第四七六分公司,臺北市士林區大南路322號1樓,1,890613,1121127,25.0889746,121.5183158
22555003,統一超商股份有限公司,70776722,台北市第四七七分公司,臺北市大安區新生南路二段六十號一樓,3,890622,930709,25.0301143,121.5339328
22555003,統一超商股份有限公司,70776737,台北市第四七八分公司,臺北市萬華區寺前里三十二鄰西園路一段二七八號一樓,3,890622,920725,25.0371203,121.4994552
22555003,統一超商股份有限公司,70776743,台北市第四七九分公司,臺北市中山區南京西路五號一樓,3,890622,910912,25.0524265,121.5212794
22555003,統一超商股份有限公司,70776758,台北市第四八０分公司,臺北市松山區光復北路九號一樓,3,890622,930726,25.0553683,121.5557557
22555003,統一超商股份有限公司,70777623,台北市第四八一分公司,臺北市中山區龍江路239號1樓,1,890628,991223,25.0583534,121.5409699
22555003,統一超商股份有限公司,70779191,台北市第四八二分公司,臺北市大安區基隆路二段142-1、142-2號1樓,1,890711,1080717,25.0282783,121.5565446
22555003,統一超商股份有限公司,70780388,台北市第六十二分公司,臺北市中正區衡陽路6號1樓,1,890721,1090528,25.0422079,121.513777
22555003,統一超商股份有限公司,70781008,台北市第八０分公司,臺北市士林區社中街211號1樓,1,890726,990824,25.0910644,121.5084512
22555003,統一超商股份有限公司,70781014,台北市第八十三分公司,臺北市南港區成福里東新街118巷1、3號1樓,1,890726,991115,25.0464291,121.5883326
22555003,統一超商股份有限公司,70781859,台北市第三十分公司,臺北市中山區長春路一七六號一樓,3,890807,940707,25.0550515,121.5260049
22555003,統一超商股份有限公司,70781865,台北市第四十三分公司,臺北市中山區晴光里14鄰中山北路3段47號1樓,1,890807,1121127,25.0666985,121.5227995
22555003,統一超商股份有限公司,70784791,台北市第九十一分公司,臺北市中山區民生東路三段31號1樓,1,890908,1121127,25.0580444,121.539111
22555003,統一超商股份有限公司,70785671,台北市第一三五分公司,臺北市萬華區萬大路二九０號一樓,3,890919,       ,25.0240297,121.5001183
22555003,統一超商股份有限公司,70787306,台北市第一四一分公司,臺北市大安區敦化南路二段一０一號一樓,3,891009,       ,25.024169,121.5483413
22555003,統一超商股份有限公司,70787312,台北市第一四五分公司,臺北市萬華區中華路一段一四六號一樓,3,891009,       ,25.0438112,121.5086529
22555003,統一超商股份有限公司,70787328,台北市第一四九分公司,臺北市萬華區環河南路二段252號1樓、環河南路二段250巷1號1樓,1,891009,1000622,25.0331675,121.4916547
22555003,統一超商股份有限公司,70787832,台北市第一六四分公司,臺北市南港區南港路二段一四０號一樓,3,891017,900622,25.0536674,121.5988884
22555003,統一超商股份有限公司,70788831,台北市第一七七分公司,臺北市信義區松壽路十二號Ｂ一樓,3,891023,891102,25.0358774,121.5647399
22555003,統一超商股份有限公司,70790908,台北市第一０五分公司,臺北市大安區辛亥路二段五十七號一樓,1,891120,1121128,25.0219051,121.5386523
22555003,統一超商股份有限公司,70791054,台北市第一七九分公司,臺北市大安區復興南路一段一三五巷五號一樓,1,891122,1121128,25.0406854,121.5436421
22555003,統一超商股份有限公司,70792194,台北市第一八九分公司,臺北市內湖區內湖路一段二八五巷六十五弄二號一樓,3,891204,910717,25.0689422,121.5909027
22555003,統一超商股份有限公司,70792440,台北市第二二五分公司,臺北市北投區中和街三一八號一樓,3,891207,       ,25.1417699,121.4990213
22555003,統一超商股份有限公司,70793588,台北市第二三０分公司,臺北市大安區忠孝東路四段二十六巷五號一樓,1,891220,1121128,25.0413474,121.5540705
22555003,統一超商股份有限公司,70793601,台北市第二四一分公司,臺北市大同區承德路三段五十三號一樓,3,891220,       ,25.0627243,121.5113064
22555003,統一超商股份有限公司,70793617,台北市第二七二分公司,臺北市士林區中山北路七段十四巷五十九弄二號一樓,3,891220,910110,25.1199089,121.5333661
22555003,統一超商股份有限公司,70793623,台北市第二八０分公司,臺北市萬華區成都路九十四號一樓,3,891220,       ,25.0262857,121.4970294
22555003,統一超商股份有限公司,70793638,台北市第二八二分公司,臺北市中正區忠孝西路一段七十四號一樓,3,891220,       ,25.0468901,121.5150428
22555003,統一超商股份有限公司,70794876,台北市第五一一分公司,臺北市萬華區東園街一七二、一七四號一樓,3,910107,       ,25.0249679,121.4969186
22555003,統一超商股份有限公司,70794881,台北市第五一二分公司,臺北市大同區承德路一段四十六號一樓,3,910107,950328,25.0627243,121.5113064
22555003,統一超商股份有限公司,70796430,台北市第五一三分公司,臺北市士林區天福里天母東路八巷二十一之六號一樓,3,910130,910225,25.1180033,121.5322261
22555003,統一超商股份有限公司,70796446,台北市第五一四分公司,臺北市大同區太原路十七號,3,910130,       ,25.0508535,121.5152487
22555003,統一超商股份有限公司,70799020,台北市第二九四分公司,臺北市士林區劍潭路十五號一樓,3,900103,       ,25.083731,121.52246
22555003,統一超商股份有限公司,70799035,台北市第三一五分公司,臺北市中山區樂群二路206號1樓,1,900103,1000919,25.0796929,121.559255
22555003,統一超商股份有限公司,70799041,台北市第三四五分公司,臺北市信義區松隆路192、194巷1樓,1,900103,1001129,25.0467571,121.5722919
22555003,統一超商股份有限公司,70799400,台北市第三四八分公司,臺北市中正區杭州南路一段23號1樓,1,900109,1121127,25.042397,121.5265215
22555003,統一超商股份有限公司,70800384,台北市第三五七分公司,臺北市內湖區成功路四段三十巷二十七、二十九、三十一號一樓,1,900202,1121128,25.0840286,121.5951732
22555003,統一超商股份有限公司,70801243,台北市第三九０分公司,臺北市信義區忠孝東路五段六一七號一樓,1,900206,1121128,25.0405778,121.5671
22555003,統一超商股份有限公司,70801258,台北市第三九八分公司,臺北市中正區懷寧街四十三號一樓,3,900206,       ,25.0427514,121.5140338
22555003,統一超商股份有限公司,70801399,台北市第一七七分公司,臺北市中山區長春路一一二號一樓,3,900207,950124,25.0550515,121.5260049
22555003,統一超商股份有限公司,70801715,台北市第八十七分公司,臺北市大安區仁愛路四段二六六巷十號一樓,3,900213,910708,25.0378148,121.5536584
22555003,統一超商股份有限公司,70802159,台北市第三八七分公司,臺北市北投區泉源路三十號地下一樓,3,900220,931231,25.1420536,121.5175928
22555003,統一超商股份有限公司,70802165,台北市第二００分公司,臺北市內湖區成功路五段四二０巷三十號一樓,1,900220,1121128,25.0785936,121.6070835
22555003,統一超商股份有限公司,70803100,台北市第一五九分公司,臺北市中正區寧波西街86號1樓,1,900306,1080717,25.0298447,121.5159062
22555003,統一超商股份有限公司,70803116,台北市第四一七分公司,臺北市萬華區昆明街四十六號一樓,3,900306,       ,25.0422281,121.5046191
22555003,統一超商股份有限公司,70803559,台北市第四八三分公司,臺北市士林區中正路二二七號一樓,3,900312,       ,25.0919088,121.5180051
22555003,統一超商股份有限公司,70803565,台北市第四八四分公司,臺北市士林區士東路一三六號一樓,3,900312,930813,25.1126825,121.5328131
22555003,統一超商股份有限公司,70803571,台北市第四八五分公司,臺北市大安區安和路二段七十四巷一號一樓,1,900312,1121128,25.0249441,121.5433783
22555003,統一超商股份有限公司,70804092,台北市第四八六分公司,臺北市大同區延平北路一段八十、八十二號一樓,3,900316,       ,25.0520511,121.5118956
22555003,統一超商股份有限公司,70804662,台北市第四八七分公司,臺北市大同區承德路3段240、242號1樓,1,900327,990901,25.0726436,121.5186345
22555003,統一超商股份有限公司,70804831,台北市第四八八分公司,臺北市士林區德行西路九十六號一樓,1,900329,1121128,25.1048564,121.5222935
22555003,統一超商股份有限公司,70804847,台北市第四八九分公司,臺北市內湖區瑞光路一九六號一樓,1,900329,1121128,25.0760261,121.575429
22555003,統一超商股份有限公司,70805705,台北市第四九０分公司,臺北市內湖區港墘路八十三號一樓,3,900416,       ,25.0786095,121.5762751
22555003,統一超商股份有限公司,70807507,台北市第三二六分公司,臺北市中山區南京東路3段208號1樓,1,900508,1080717,25.0523713,121.5281453
22555003,統一超商股份有限公司,70808288,台北市第四九一分公司,臺北市中山區樂群二路154號1樓,3,900515,1000718,25.0797154,121.5572795
22555003,統一超商股份有限公司,70808479,台北市第四九二分公司,臺北市大同區長安西路四十五之一號一樓,3,900521,       ,25.0516176,121.5138892
22555003,統一超商股份有限公司,70809076,台北市第四九三分公司,臺北市士林區大南路400、402號1樓,1,900604,990816,25.0895224,121.5157739
22555003,統一超商股份有限公司,70809081,台北市第四九四分公司,臺北市中山區林森北路一三一號一樓,3,900604,910201,25.0505575,121.5250715
22555003,統一超商股份有限公司,70809266,台北市第四九五分公司,臺北市大安區信義路四段32號1樓,1,900530,1121127,25.0330561,121.5453516
22555003,統一超商股份有限公司,70809580,台北市第四九六分公司,臺北市士林區基河路十五號一樓,3,900605,       ,25.0913579,121.5215142
22555003,統一超商股份有限公司,70811039,台北市第四０三分公司,臺北市中山區長春路一三五、一三五之一號一樓,1,900621,1121128,25.0547596,121.5362689
22555003,統一超商股份有限公司,70811050,台北市第四九八分公司,臺北市中正區博愛路九十八號一樓、武昌街一段四十八號一樓,3,900621,901022,25.0421407,121.5198716
22555003,統一超商股份有限公司,70811066,台北市第四九七分公司,臺北市信義區忠孝東路四段五０四號一樓,3,900621,       ,25.0423587,121.5633589
22555003,統一超商股份有限公司,70812348,台北市第四九九分公司,臺北市中正區漢口街一段七十號一樓,3,900713,       ,25.0421407,121.5198716
22555003,統一超商股份有限公司,70812353,台北市第五００分公司,臺北市信義區松山路136號、138號、138之1號1樓,1,900713,1040427,25.0472839,121.577395
22555003,統一超商股份有限公司,70813579,台北市第一二七分公司,臺北市士林區延平北路五段二五九號一樓,3,900727,       ,25.0826582,121.5102836
22555003,統一超商股份有限公司,70813584,台北市第五０一分公司,臺北市大安區忠孝東路三段249之1號1樓,1,900727,1121127,25.0419145,121.5415366
22555003,統一超商股份有限公司,70814438,台北市第七十二分公司,臺北市南港區重陽路164號1樓,1,900807,1000530,25.0571308,121.6009048
22555003,統一超商股份有限公司,70815422,台北市第五０二分公司,臺北市松山區復興南路一段四十三號一樓,1,900813,1121128,25.0463463,121.543983
22555003,統一超商股份有限公司,70815437,台北市第五０三分公司,臺北市內湖區洲子街四十六號一樓,1,900813,1121128,25.0799584,121.5712713
22555003,統一超商股份有限公司,70816098,台北市第一七三分公司,臺北市中山區林森北路310巷10號1樓、中山北路二段59巷55、55-1、55-2、55-3、55-4、57、59號1樓,1,900823,1001122,25.0792018,121.5427093
22555003,統一超商股份有限公司,70816273,台北市第四六六分公司,臺北市大同區南京西路127號1樓,1,900827,1121127,25.054354,121.5149174
22555003,統一超商股份有限公司,70816560,台北市第五０四分公司,臺北市士林區福港街246、248號1樓,1,900829,1020118,25.0842855,121.5174661
22555003,統一超商股份有限公司,70817596,台北市第五０五分公司,臺北市內湖區西康里瑞光路五八三巷二十七號一樓,1,900914,1121128,25.0973153,121.5238031
22555003,統一超商股份有限公司,70817603,台北市第五０六分公司,臺北市萬華區西園路一段三一四-二號一樓,3,900914,       ,25.0371203,121.4994552
22555003,統一超商股份有限公司,70820282,台北市第五０七分公司,臺北市大安區和平東路一段169號1樓,1,901009,1121127,25.0265495,121.5318591
22555003,統一超商股份有限公司,70820683,台北市第五０八分公司,臺北市內湖區陽光街三八三號一樓,3,901016,1000630,25.0749079,121.581992
22555003,統一超商股份有限公司,70820699,台北市第五０九分公司,臺北市內湖區陽光街一五九號一樓,1,901016,1121128,25.0749079,121.581992
22555003,統一超商股份有限公司,70820706,台北市第五一０分公司,臺北市萬華區峨嵋街一一一之二、一一一之三號一樓,1,901016,1121128,25.0440139,121.5048862
22555003,統一超商股份有限公司,70820868,台北市第十分公司,臺北市南港區興華路九十號一樓,3,901019,       ,25.0312347,121.6111949
22555003,統一超商股份有限公司,70821819,台北市第二二二分公司,臺北市信義區忠孝東路五段一之六號一樓,1,901031,1121128,25.0405778,121.5671
22555003,統一超商股份有限公司,70821851,台北市第一二一分公司,臺北市北投區西湖里湖山路一段十二號一樓,3,901031,931231,25.1519437,121.5448566
22555003,統一超商股份有限公司,70821867,台北市第一六四分公司,臺北市大安區仁愛路三段九十四號一樓,3,901031,       ,25.0249441,121.5433783
22555003,統一超商股份有限公司,70824230,台北市第九十四分公司,臺北市士林區中正路324號1樓,1,901203,1121127,25.0947283,121.522535
22555003,統一超商股份有限公司,70825131,台北市第三十三分公司,臺北市松山區復興北路二０九號一樓,3,901212,920507,25.0538055,121.5472879
22555003,統一超商股份有限公司,70825147,台北市第七十四分公司,臺北市松山區光復北路十一巷六十、六十二號一樓 ,3,901212,930108,25.0541591,121.5638621
22555003,統一超商股份有限公司,70825152,台北市第三三八分公司,臺北市大安區信義路三段一六六之一號一樓,3,901212,       ,25.0333921,121.5315564
22555003,統一超商股份有限公司,70825322,台北市第四００分公司,臺北市大同區承德路一段22號1樓,1,901213,1121127,25.0504245,121.5166625
22555003,統一超商股份有限公司,70827166,台北市第二分公司,臺北市內湖區五分里五分街四十一號一樓,3,901225,       ,25.0673647,121.6148813
22555003,統一超商股份有限公司,70827172,台北市第一八八分公司,臺北市松山區寶清街34號1樓,1,901225,1000401,25.0527442,121.5677785
22555003,統一超商股份有限公司,70827187,台北市第四三五分公司,臺北市松山區東興路13-1號1樓；15巷3號1樓,1,901225,1000324,25.050179,121.5655114
22555003,統一超商股份有限公司,80020696,台北市第二一五分公司,臺北市士林區克強路13之1號1樓,3,920429,920725,25.1087566,121.5241966
22555003,統一超商股份有限公司,80020915,台北市第二三二分公司,臺北市中山區錦州街263、265號1樓,1,920430,1121128,25.0604671,121.5350055
22555003,統一超商股份有限公司,80021787,台北市第五四三分公司,臺北市信義區莊敬路四七０號一樓,3,920516,       ,25.0291285,121.5626361
22555003,統一超商股份有限公司,80022316,台北市第四十二分公司,臺北市中正區中華路一段五十九之十六、五十九之十七號一樓,1,920520,1121128,25.0426946,121.5086099
22555003,統一超商股份有限公司,80023413,台北市第四十九分公司,臺北市萬華區糖廍里臺北市萬華糖  里一鄰西園路一段二四六號一樓,3,920602,       ,25.0262857,121.4970294
22555003,統一超商股份有限公司,80023429,台北市第四四六分公司,臺北市大安區信義路三段三十三號一樓,1,920602,1121128,25.0335808,121.5393257
22555003,統一超商股份有限公司,80023743,台北市第一五四分公司,臺北市中山區南京東路一段九十二號一樓,3,920611,       ,25.0521951,121.5253519
22555003,統一超商股份有限公司,80023878,台北市第三十三分公司,臺北市士林區至善路二段264號,1,920611,1121127,25.1004055,121.5509291
22555003,統一超商股份有限公司,80023883,台北市第五二三分公司,臺北市北投區中央北路二段十五、十七號,1,920611,1121128,25.13804,121.4925327
22555003,統一超商股份有限公司,80023899,台北市第五二五分公司,臺北市士林區克強路十三之一號一樓,3,920611,920707,25.1089066,121.5238334
22555003,統一超商股份有限公司,80024166,台北市第五五二分公司,臺北市內湖區江南街71巷16弄76號1樓、江南街65巷51號1樓,1,920616,1030513,25.0762698,121.5789467
22555003,統一超商股份有限公司,80024172,台北市第五五三分公司,臺北市內湖區行愛路一二八號,1,920616,1121128,25.0633481,121.5806791
22555003,統一超商股份有限公司,80026087,台北市第五五四分公司,臺北市內湖區康寧路三段一六五巷二十三弄一號,3,920702,       ,25.0671244,121.6113254
22555003,統一超商股份有限公司,80026170,台北市第五五五分公司,臺北市中正區羅斯福路二段六十八號一樓,1,920704,1121128,25.0203177,121.5285068
22555003,統一超商股份有限公司,80026333,台北市第五五六分公司,臺北市大同區重慶北路二段六十二之一號一樓,3,920707,       ,25.0588131,121.5137056
22555003,統一超商股份有限公司,80027797,台北市第二七九分公司,臺北市萬華區福星里西寧南路16、18、18-1號1樓,3,920725,1001228,25.0455769,121.506457
22555003,統一超商股份有限公司,80028156,台北市第一一六分公司,臺北市中山區中山北路三段二十三之六號一樓,3,920730,930510,25.0693667,121.5232252
22555003,統一超商股份有限公司,80028803,台北市第二二六分公司,臺北市萬華區福音里桂林路55號、57巷1號1樓,1,920813,1020924,25.0383037,121.5031107
22555003,統一超商股份有限公司,80029486,台北市第二九六分公司,臺北市大同區鄭州路三之二號一樓,3,920828,       ,25.0498653,121.5115991
22555003,統一超商股份有限公司,80030569,台北市第二五一分公司,臺北市中山區雙城街30號1樓,1,920915,1000307,25.0644275,121.5242741
22555003,統一超商股份有限公司,80031862,台北市第五五七分公司,臺北市內湖區行忠路三十號,1,921020,1121128,25.0666122,121.5804524
22555003,統一超商股份有限公司,80032095,台北市第二三五分公司,臺北市信義區光復南路五０五、五０七號一樓、文昌街三二九號,3,921016,921204,25.0352607,121.5580998
22555003,統一超商股份有限公司,80032102,台北市第四一五分公司,臺北市大安區仁愛路四段二六六巷十五弄二十二號一樓,1,921016,1121128,25.0249441,121.5433783
22555003,統一超商股份有限公司,80032503,台北市第一０二分公司,臺北市南港區研究院路二段一五二號一樓,1,921022,1121128,25.042542,121.6168243
22555003,統一超商股份有限公司,80032519,台北市第二０一分公司,臺北市士林區陽明里格致路28號,1,921022,1121127,25.1368682,121.5465004
22555003,統一超商股份有限公司,80034544,台北市第二九三分公司,臺北市士林區士商路一八九號,3,921204,       ,25.0931043,121.518126
22555003,統一超商股份有限公司,80034559,台北市第四一０分公司,臺北市士林區福德路一號一樓,3,921204,       ,25.0919456,121.5237141
22555003,統一超商股份有限公司,80034565,台北市第四四一分公司,臺北市北投區東華街二段三０一號一樓,3,921204,930120,25.1204113,121.5095756
22555003,統一超商股份有限公司,80034636,台北市第二五八分公司,臺北市中正區忠孝西路一段三十六號一樓,3,921204,       ,25.0460243,121.5169483
22555003,統一超商股份有限公司,80035369,台北市第四五七分公司,臺北市北投區實踐街九十二號一樓,3,921215,931005,25.1152236,121.5094831
22555003,統一超商股份有限公司,80327801,台北市第五一五分公司,臺北市萬華區青年路五十號一樓,3,910208,920106,25.0228968,121.5026855
22555003,統一超商股份有限公司,80327990,台北市第五一六分公司,臺北市士林區天福里天母東路五十巷二十之一、二十之十三號一樓,3,910208,940617,25.1180033,121.5322261
22555003,統一超商股份有限公司,80329364,台北市第三○二分公司,臺北市大安區泰順街13號1樓,1,910312,1121128,25.025062,121.5315445
22555003,統一超商股份有限公司,80330849,台北市第十六分公司,臺北市中正區寶慶路三二之一號B一,3,910403,940413,25.0412698,121.5113787
22555003,統一超商股份有限公司,80330860,台北市第三九三分公司,臺北市大同區延平北路二段260之1、2號1樓,3,910403,910502,25.0604138,121.5112717
22555003,統一超商股份有限公司,80331397,台北市第四五四分公司,臺北市內湖區成功路五段四六六號一樓,3,910411,       ,25.0785936,121.6070835
22555003,統一超商股份有限公司,80331684,台北市第五一七分公司,臺北市南港區中坡南路十五號一樓,3,910416,       ,25.0428467,121.5836095
22555003,統一超商股份有限公司,80331690,台北市第五一八分公司,臺北市內湖區康寧路三段七十二號Ｂ一樓,3,910416,       ,25.0671244,121.6113254
22555003,統一超商股份有限公司,80333156,台北市第二七二分公司,臺北市士林區延平北路六段350、350之1號1樓,1,910508,1121127,25.0906762,121.5013076
22555003,統一超商股份有限公司,80333418,台北市第四九四分公司,臺北市北投區福興里致遠一路二段五十五號一樓,3,910510,       ,25.1123525,121.5134371
22555003,統一超商股份有限公司,80333944,台北市第二一八分公司,臺北市內湖區金瑞里內湖路三段一四一巷七號一樓,3,910514,       ,25.0818095,121.5718551
22555003,統一超商股份有限公司,80333959,台北市第五一九分公司,臺北市萬華區中華路二段三六六號一樓,3,910514,       ,25.0287057,121.5052712
22555003,統一超商股份有限公司,80333965,台北市第五二０分公司,臺北市中正區中華路二段一五七號一樓,1,910514,1121128,25.0287057,121.5052712
22555003,統一超商股份有限公司,80334628,台北市第五二一分公司,臺北市北投區石牌路二段8號1樓,1,910530,1121127,25.1153411,121.5155177
22555003,統一超商股份有限公司,80335210,台北市第一六二分公司,臺北市內湖區西安里環山路一段一一０號一樓,3,910604,910620,25.0864351,121.5692023
22555003,統一超商股份有限公司,80335669,台北市第五二四分公司,臺北市大安區安和路二段六十七號一樓,1,910618,1121128,25.0249441,121.5433783
22555003,統一超商股份有限公司,80335675,台北市第五二二分公司,臺北市中正區開封街一段二十五號一樓,3,910618,910705,25.0460277,121.5124665
22555003,統一超商股份有限公司,80336436,台北市第四０八分公司,臺北市中正區南海路50號1樓,1,910617,1121127,25.0320356,121.5153153
